stop_id,stop_code,stop_name,stop_desc,stop_lat,stop_lon,zone_id,wheelchair_boarding
68083,68083,"NE 8th St & 118th Ave NE - Bay 1 (WB)",,47.617363,-122.183884,19,0
99441,99441,"Maple Valley - Black Diamond Rd SE & SE 260th St (NB)",,47.369072,-122.022514,40,0
2209,2209,"US Hwy 2 &E Main St (WB)",,47.858429,-121.966248,15,0
2207,2207,"Galaxy Way &N Kelsey St (SB)",,47.8655891,-121.973129,15,0
2208,2208,"US Hwy 2 &E Main St (EB)",,47.858223,-121.965927,15,0
81984,81984,"244th St SW & Van Ry Blvd (WB)",,47.7776642,-122.313126,17,0
71241,71241,"NE 24th St & 180th Ave NE (WB)",,47.6312561,-122.100632,19,0
71242,71242,"NE 24th St & 179th Ave NE (EB)",,47.6311188,-122.101334,19,0
64587,64587,"10th Ave NW & NW Sammamish Rd (NB)",,47.5516586,-122.049843,19,0
72288,72288,"NE 68th St & 110th Ave NE (WB)",,47.6663513,-122.193008,19,0
81983,81983,"Van Ry Blvd & 244th St SW (NB)",,47.777874,-122.312538,17,0
72289,72289,"NE 68th St & 110th Ave NE (EB)",,47.6661987,-122.193199,19,0
76977,76977,"NE 175th St & 133rd Ave NE (WB)",,47.7545509,-122.161423,19,0
76970,76970,"Sr 522 & 132nd Ave NE (EB)",,47.757515,-122.164566,19,0
26835,26835,"Westlake Ave N & Halladay St (NB)",,47.6425591,-122.343475,1,0
66742,66742,"164th Ave NE & Northup Way (SB)",,47.6246834,-122.12178,19,0
63820,63820,"180th Ave NE & NE 68th St (NB)",,47.6676559,-122.100044,19,0
69015,69015,"110th Ave NE & NE 10th St (SB)",,47.6187897,-122.193741,19,0
26535,26535,"Westlake Ave N & Halladay St (SB)",,47.64217,-122.343422,1,0
58795,58795,"SR 516 & Military Rd S (EB)",,47.390625,-122.286018,24,0
68415,68415,"156th Ave NE & NE 33rd St (SB)",,47.6392021,-122.132423,19,0
18152,18152,"Leary Ave NW & NW Dock Pl (NB)",,47.6653214,-122.380417,1,0
16329,16329,"Meridian Ave N & N 150th St (NB)",,47.7381516,-122.334297,18,0
16327,16327,"Meridian Ave N & N 155th St (SB)",,47.7411003,-122.334579,18,0
16331,16331,"Meridian Ave N & N 148th St (SB)",,47.7360954,-122.334435,18,0
79595,79595,"SW Sunset Blvd & SW 4th Pl (EB)",,47.4778328,-122.229301,24,0
626,626,"S Washington St & 5th Ave S (EB)",,47.6008034,-122.327942,21,0
85532,85532,"Federal Way Downtown Station - Bay 2 (SB)",,47.3168335,-122.30368,24,0
85539,85539,"Federal Way Downtown Station - Bay 9 (NB)",,47.3169327,-122.303398,24,0
85538,85538,"Federal Way Downtown Station - Bay 8 (NB)",,47.3166771,-122.303558,24,0
85540,85540,"Federal Way Downtown Station - Bay 10 (NB)",,47.3171043,-122.303299,24,0
85541,85541,"Federal Way Downtown Station - Bay 11 (SB)",,47.316452,-122.30323,24,0
85542,85542,"Federal Way Downtown Station - Bay 12 (WB)",,47.3151779,-122.305496,24,0
85543,85543,"Federal Way Downtown Station - Bay 13 (EB)",,47.3150368,-122.30439,24,0
72478,72478,"Cleveland St & 166th Ave NE - Bay 3 (EB)",,47.6720924,-122.119255,19,0
72476,72476,"NE 76th St & 164th Ave NE - Bay 1 (WB)",,47.6722412,-122.121292,19,0
72492,72492,"Marymoor Village Station - Bay 2 (SB)",,47.6677933,-122.107521,19,0
72494,72494,"Marymoor Village Station - Bay 4 (SB)",,47.6678581,-122.1073,19,0
63810,63810,"NE 68th St & 180th Ave NE (WB)",,47.6671181,-122.099091,19,0
72477,72477,"NE 76th St & 166th Ave NE - Bay 2 (WB)",,47.6715317,-122.11834,19,0
72479,72479,"Cleveland St & 164th Ave NE - Bay 4 (EB)",,47.6727638,-122.121056,19,0
6658,6658,"NW 90th St & 1st Ave NW (WB)",,47.6943016,-122.358368,1,0
18388,18388,"Dexter Ave N & Republican St (SB)",,47.6229095,-122.342468,1,0
57408,57408,"SE 248th St & 124th Ave SE (EB)",,47.3796043,-122.176491,24,0
57411,57411,"120th Ave SE & SE 246th Pl(SB)",,47.3808746,-122.181534,24,0
57413,57413,"120th Ave SE & SE 240th Pl (SB)",,47.3863602,-122.181534,24,0
81249,81249,"5th Ave NE & NE 165th St (NB)",,47.7489738,-122.32383,18,0
82434,82434,"56th Ave W & 236th St SW (SB)",,47.7843056,-122.308517,17,0
82432,82432,"56th Ave W & 240th St SW (SB)",,47.7813339,-122.308495,17,0
82433,82433,"56th Ave W & 244th St SW (SB)",,47.7777786,-122.308464,17,0
82431,82431,"56th Ave W & 240th St SW (NB)",,47.7810059,-122.308289,17,0
82429,82429,"19th Ave NE & 244th St SW (NB)",,47.7772942,-122.308311,18,0
77942,77942,"Ballinger Way NE & 19th Ave NE (NB)",,47.7742653,-122.308823,18,0
64484,64484,"2nd Ave SE & SE Nyberg Ln (NB)",,47.5191803,-122.029762,19,0
64478,64478,"Issaquah Hobart Rd S & SE 113th St (NB)",,47.5004692,-122.02224,40,0
64477,64477,"Squak Mountain Trailhead SE & SE May Valley Rd (NB)",,47.4815102,-122.053795,40,0
64476,64476,"Renton Issaquah Rd SE & 190th Ave SE (NB)",,47.508152,-122.088326,40,0
71323,71323,"152nd Ave NE & NE Shen St (NB)",,47.635746,-122.137589,19,0
74741,74741,"Totem Lake Blvd & 120th Ave NE (SB)",,47.71035,-122.179237,40,0
85793,85793,"Main Ave S & Cedar Ave S (EB)",,47.4926872,-121.788139,40,0
78046,78046,"Tolt Ave & W Rutherford St (SB)",,47.649868,-121.91304,40,0
39341,39341,"15th Ave NE & NE 145th St (SB)",,47.7343369,-122.312866,20,0
68411,68411,"156th Ave NE & NE 33rd St (NB)",,47.6399422,-122.132217,19,0
62293,62293,"SE 272nd St & 172nd Ave SE (EB)",,47.35812,-122.111946,40,0
59751,59751,"SE Royal Hills Dr & Harrington Pl SE (WB)",,47.4701195,-122.181,24,0
8870,8870,"Rainier Ave S & S Graham St (SB)",,47.545714,-122.2756,21,0
61830,61830,"SW 312th St & SW Dash Point Rd (WB)",,47.322382,-122.355754,24,0
57121,57121,"SE 240th St & 108th Ave SE (EB)",,47.386948,-122.196679,24,0
76298,76298,"Main St & 103rd Ave NE (EB)",,47.760302,-122.20219,19,0
2330,2330,"1st Ave N & Denny Way (NB)",,47.618898,-122.355475,21,0
2360,2360,"1st Ave N & Republican St (NB)",,47.623118,-122.355422,21,0
2690,2690,"1st Ave N & Mercer St (NB)",,47.624732,-122.355415,21,0
57840,57840,"1st St NE & B St NE (EB)",,47.308267,-122.227147,24,0
82810,82810,"Main St & 112th Ave NE (WB)",,47.6101265,-122.191422,19,0
59904,59904,"South Renton P&R - Bay 3 (SB)",,47.472184,-122.212659,24,0
59842,59842,"South Renton P&R - Bay 1 (WB)",,47.472513,-122.213854,24,0
55938,55938,"South Renton P&R - Bay 2 (EB)",,47.472521,-122.213148,24,0
76360,76360,"NE Bothell Way & 80th Ave NE (WB)",,47.755907,-122.234723,19,0
58121,58121,"Southcenter Pkwy & S 175th St (SB)",,47.445585,-122.261798,24,0
58122,58122,"Southcenter Pkwy & S 180th St (SB)",,47.44382,-122.26119,24,0
58094,58094,"Southcenter Pkwy & S 180th St (NB)",,47.444406,-122.261389,24,0
59610,59610,"SE 164th St & 131st Ave SE (WB)",,47.456357,-122.165442,24,0
30510,30510,"15th Ave S & S Dakota St (NB)",,47.567485,-122.313476,21,0
14200,14200,"15th Ave NW & NW Leary Way (NB)",,47.663428,-122.376083,21,0
13760,13760,"15th Ave NW & NW Leary Way (SB)",,47.663135,-122.376391,21,0
66740,66740,"164th Ave NE & NE 18th St (SB)",,47.62564,-122.121686,19,0
58360,58360,"Auburn Way S & 8th St SE (SB)",,47.300249,-122.224028,24,0
65305,65305,"SE Eastgate Way & 146th Pl SE (EB)",,47.579707,-122.145125,19,0
65325,65325,"SE Eastgate Way & 146th Pl SE (WB)",,47.579726,-122.145681,19,0
65320,65320,"SE Eastgate Way & 150th Ave SE (WB)",,47.580759,-122.139786,19,0
76340,76340,"NE Bothell Way & 91st Ave NE (WB)",,47.753005,-122.225383,19,0
23220,23220,"5th Ave NE & NE 112th St (SB)",,47.709782,-122.323324,21,0
23230,23230,"5th Ave NE & NE Northgate Way (SB)",,47.708193,-122.323279,21,0
51401,51401,"SW 148th St & 6th Ave SW (WB)",,47.47042,-122.341767,24,0
52310,52310,"SW 148th St & 6th Ave SW (EB)",,47.470414,-122.341366,24,0
80762,80762,"Lind Ave SW & SW 16th St (SB)",,47.465786,-122.223375,24,0
80668,80668,"Lind Ave SW & SW 16th St (NB)",,47.46595,-122.223372,24,0
59358,59358,"SW 43rd St & Lind Ave SW (EB)",,47.441129,-122.223155,24,0
60374,60374,"SW 43rd St & Lind Ave SW (WB)",,47.441137,-122.22465,24,0
60370,60370,"SW 43rd St & E Valley Hwy (WB)",,47.441118,-122.220704,24,0
80764,80764,"Lind Ave SW & SW 41st St (SB)",,47.443579,-122.223962,24,0
68584,68584,"148th Ave SE & SE 28th St (SB)",,47.585634,-122.142753,19,0
68590,68590,"148th Ave SE & SE 28th St (NB)",,47.585991,-122.142759,19,0
75405,75405,"Stevens Way NE & George Washington Ln (WB)",,47.655067,-122.311027,21,0
75403,75403,"East Stevens Way NE & Benton Lane",,47.654475,-122.305047,21,0
75414,75414,"East Stevens Way NE & Benton Lane",,47.653736,-122.30513,21,0
6340,6340,"Aurora Ave N & N 38th St (NB)",,47.65247,-122.346729,21,0
12560,12560,"23rd Ave & E Yesler Way (NB)",,47.601879,-122.302409,21,0
12630,12630,"23rd Ave S & E Yesler Way (SB)",,47.601259,-122.302263,21,0
720,720,"4th Ave & Stewart St (NB)",,47.612566,-122.339208,21,0
970,970,"Stewart St & 4th Ave (WB)",,47.611941,-122.3392,21,0
74958,74958,"NW 200th St & 2nd Ave NW (WB)",,47.77414,-122.358747,18,0
5492,5492,"Shoreline Community College (NB)",,47.746987,-122.357978,18,0
30820,30820,"S Columbian Way & S Snoqualmie St (SB)",,47.561813,-122.31078,21,0
30453,30453,"Veterans Administration Hospital (EB)",,47.563794,-122.309264,21,0
60360,60360,"S 43rd St & Talbot Rd S (WB)",,47.441101,-122.21327,24,0
47260,47260,"Highline College Rdwy & S 240th St (WB)",,47.387129,-122.30184,24,0
60637,60637,"23rd Ave S & S 322nd St (NB)",,47.312772,-122.303498,24,0
83752,83752,"Fed Way/320th Street P&R - Bay 2 (WB)",,47.312465,-122.300653,24,0
47970,47970,"I-5 & S 272nd St (SB)",,47.359118,-122.297146,24,0
47972,47972,"I-5 & S 272nd St (NB)",,47.358389,-122.294785,24,0
39965,39965,"SW Thistle St & 25th Ave SW (EB)",,47.528278,-122.364933,21,0
32200,32200,"East Marginal Way S & S 96th Pl (SB)",,47.516593,-122.296614,26,0
31630,31630,"East Marginal Way S & S 96th Pl (NB)",,47.517295,-122.297075,26,0
31620,31620,"East Marginal Way S & S Norfolk St (NB)",,47.513066,-122.294348,26,0
17120,17120,"1st Ave NE & N 77th St (SB)",,47.68486,-122.328324,21,0
17590,17590,"1st Ave NE & NE 77th St (NB)",,47.68526,-122.328323,21,0
17600,17600,"1st Ave NE & NE 80th St (NB)",,47.686616,-122.328334,21,0
17110,17110,"1st Ave NE & N 80th St (SB)",,47.686589,-122.32833,21,0
17024,17024,"1st Ave NE & NE 95th St (NB)",,47.69792,-122.328465,21,0
2320,2320,"1st Ave & Broad St (NB)",,47.617147,-122.352943,21,0
73040,73040,"NE 1st St & Lake Washington Blvd NE (SB)",,47.618824,-122.221194,19,0
15230,15230,"1st Ave S & S Lander St (NB)",,47.579682,-122.334212,21,0
15190,15190,"1st Ave S & S Spokane St (NB)",,47.572338,-122.334106,21,0
48346,48346,"1st Ave S & SW 112th St (SB)",,47.502823,-122.333666,24,0
47850,47850,"1st Ave S & S 116th St (NB)",,47.499856,-122.333704,24,0
48360,48360,"1st Ave S & SW 116th St (SB)",,47.499924,-122.333707,24,0
48370,48370,"1st Ave S & SW 119th St (SB)",,47.496441,-122.333747,24,0
47840,47840,"1st Ave S & S 120th St (NB)",,47.496118,-122.333751,24,0
48390,48390,"1st Ave S & SW 124th St (SB)",,47.49224,-122.333797,24,0
47820,47820,"1st Ave S & S 124th St (NB)",,47.492443,-122.333794,24,0
48410,48410,"1st Ave S & SW 130th Pl (SB)",,47.485716,-122.333839,24,0
47780,47780,"1st Ave S & S 136th St (NB)",,47.481545,-122.333835,24,0
48430,48430,"1st Ave S & SW 136th St (SB)",,47.480866,-122.333839,24,0
48440,48440,"1st Ave S & SW 138th St (SB)",,47.479564,-122.333836,24,0
47770,47770,"1st Ave S & S 138th St (NB)",,47.479394,-122.333838,24,0
47760,47760,"1st Ave S & S 140th St (NB)",,47.477533,-122.333837,24,0
47750,47750,"1st Ave S & S 143rd St (NB)",,47.47547,-122.333847,24,0
48460,48460,"1st Ave S & SW 143rd St (SB)",,47.47473,-122.333852,24,0
48470,48470,"1st Ave S & SW 146th St (SB)",,47.472045,-122.333866,24,0
48550,48550,"1st Ave S & SW 156th St (SB)",,47.462922,-122.333929,24,0
47630,47630,"1st Ave S & SW 158th St (NB)",,47.461695,-122.333936,24,0
47620,47620,"1st Ave S & S 160th St (NB)",,47.459998,-122.33395,24,0
48570,48570,"1st Ave S & SW 160th St (SB)",,47.460113,-122.333948,24,0
48580,48580,"1st Ave S & SW 164th Pl (SB)",,47.455145,-122.333918,24,0
47610,47610,"1st Ave S & SW 164th Pl (NB)",,47.455063,-122.333919,24,0
48590,48590,"1st Ave S & SW 168th St (SB)",,47.452545,-122.333943,24,0
47600,47600,"1st Ave S & S 168th St (NB)",,47.45223,-122.333939,24,0
47590,47590,"1st Ave S & S 170th St (NB)",,47.4501,-122.333941,24,0
48600,48600,"1st Ave S & S 170th St (SB)",,47.449972,-122.333939,24,0
48610,48610,"1st Ave S & SW 176th St (SB)",,47.445157,-122.33398,24,0
47580,47580,"1st Ave S & S 176th St (NB)",,47.445075,-122.333985,24,0
48630,48630,"1st Ave S & SW Normandy Rd (SB)",,47.441233,-122.334487,24,0
48640,48640,"1st Ave S & SW 185th St (SB)",,47.438761,-122.334822,24,0
47570,47570,"1st Ave S & SW Normandy Rd (NB)",,47.442011,-122.33438,24,0
47550,47550,"1st Ave S & SW 185th St (NB)",,47.439005,-122.334787,24,0
48660,48660,"1st Ave S & SW 186th St (SB)",,47.436503,-122.335126,24,0
47540,47540,"1st Ave S & S 186th St (NB)",,47.436802,-122.335086,24,0
47530,47530,"1st Ave S & Normandy Park Dr SW (NB)",,47.434199,-122.335451,24,0
48670,48670,"1st Ave S & Normandy Park Dr SW (SB)",,47.433157,-122.335586,24,0
47520,47520,"1st Ave S & S 192nd St (NB)",,47.43176,-122.335774,24,0
48680,48680,"1st Ave S & SW 192nd St (SB)",,47.430938,-122.335804,24,0
47510,47510,"1st Ave S & S 194th St (NB)",,47.427797,-122.335573,24,0
48690,48690,"1st Ave S & SW 194th St (SB)",,47.427937,-122.335587,24,0
48710,48710,"1st Ave S & S 199th St (SB)",,47.424252,-122.335293,24,0
47480,47480,"1st Ave S & S 202nd St (NB)",,47.421402,-122.335236,24,0
48720,48720,"1st Ave S & SW 202nd St (SB)",,47.420648,-122.33525,24,0
47470,47470,"1st Ave S & S 206th St (NB)",,47.419056,-122.33527,24,0
48730,48730,"1st Ave S & S 206th St (SB)",,47.418467,-122.335277,24,0
47460,47460,"1st Ave S & S 208th St (NB)",,47.416288,-122.335268,24,0
48740,48740,"1st Ave S & SW 208th St (SB)",,47.415743,-122.335231,24,0
48741,48741,"1st Ave S & S 210th St (SB)",,47.413869,-122.334902,24,0
47451,47451,"1st Ave S & S 210th St (NB)",,47.413696,-122.334868,24,0
48750,48750,"1st Ave S & SW 211th St (SB)",,47.412457,-122.334644,24,0
47450,47450,"1st Ave S & S 211th St (NB)",,47.412485,-122.334648,24,0
48760,48760,"1st Ave S & S 213th St (SB)",,47.410939,-122.33404,24,0
47440,47440,"1st Ave S & S 213th St (NB)",,47.411145,-122.334248,24,0
83590,83590,"1st Ave S & SW Dash Point Rd (SB)",,47.330071,-122.334644,24,0
47790,47790,"1st Ave S & S 132nd St (NB)",,47.48474,-122.333839,24,0
27160,27160,"2nd Ave NE & Woodlawn Ave NE (NB)",,47.677781,-122.32732,21,0
81100,81100,"2nd St SE & B St SE (WB)",,47.305664,-122.227432,24,0
2390,2390,"2nd Ave W & W Roy St (NB)",,47.625894,-122.359324,21,0
360,360,"2nd Ave & Cherry St (SB)",,47.603049,-122.333216,21,0
340,340,"2nd Ave & Marion St (SB)",,47.604498,-122.334542,21,0
320,320,"2nd Ave & Seneca St (SB)",,47.606241,-122.336138,21,0
300,300,"2nd Ave & Pike St (SB)",,47.608677,-122.338367,21,0
280,280,"2nd Ave & Stewart St (SB)",,47.610647,-122.340175,21,0
260,260,"2nd Ave & Lenora St (SB)",,47.612144,-122.342469,21,0
250,250,"2nd Ave & Bell St (SB)",,47.613755,-122.345193,21,0
390,390,"2nd Ave Ext S & S Jackson St (SB)",,47.599295,-122.329785,21,0
59340,59340,"Andover Park W & Minkler Blvd (SB)",,47.448317,-122.254453,24,0
60410,60410,"Andover Park W & Minkler Blvd (NB)",,47.448834,-122.254446,24,0
59350,59350,"Andover Park W & Midland Dr (SB)",,47.445363,-122.254515,24,0
60400,60400,"Andover Park W & Midland Dr (NB)",,47.445719,-122.25451,24,0
60380,60380,"Andover Park W & S 180th St (NB)",,47.441729,-122.254587,24,0
59946,59946,"Talbot Rd S & S 27th Pl (SB)",,47.455208,-122.212642,24,0
59951,59951,"Talbot Rd S & S 32nd St (SB)",,47.450994,-122.211635,24,0
74030,74030,"166th Ave NE & NE 102nd Pl (NB)",,47.691568,-122.118264,19,0
73560,73560,"166th Ave NE & NE 104th St (SB)",,47.692472,-122.118387,19,0
56845,56845,"SE 142nd St & 148th Pl SE (EB)",,47.475662,-122.141722,24,0
54100,54100,"SE 142nd St & 148th Pl SE (WB)",,47.475675,-122.142756,24,0
54095,54095,"SE 142nd St & 150th Pl SE (WB)",,47.475648,-122.140385,24,0
56850,56850,"SE 142nd St & 150th Pl SE (EB)",,47.475643,-122.139396,24,0
54115,54115,"144th Ave SE & SE 140th St (NB)",,47.477624,-122.148226,24,0
71353,71353,"SR 520 & NE 51st St (NB)",,47.654911,-122.136742,19,0
71341,71341,"SR 520 & NE 51st St (SB)",,47.653875,-122.138684,19,0
60454,60454,"132nd Ave SE & SE 260th St (SB)",,47.368832,-122.165444,24,0
60486,60486,"132nd Ave SE & SE 260th St (NB)",,47.368917,-122.165447,24,0
59555,59555,"SE Petrovitsky Rd & 134th Ave SE (EB)",,47.446774,-122.162085,24,0
81106,81106,"C St SW & 8th St SW (SB)",,47.300709,-122.232333,24,0
83708,83708,"S 320th St & 5th Ave S (EB)",,47.315164,-122.327678,24,0
74450,74450,"South Kirkland P&R (NB)",,47.643805,-122.196784,19,0
74721,74721,"Kingsgate P&R (SB)",,47.716548,-122.187566,19,0
18530,18530,"Dexter Ave N & Newton St (NB)",,47.63608,-122.342473,21,0
18320,18320,"Dexter Ave N & Howe St (SB)",,47.635729,-122.342315,21,0
27660,27660,"E Alder St & 35th Ave (EB)",,47.604375,-122.287773,21,0
29091,29091,"NE 45th St & 45th Ave NE (WB)",,47.661469,-122.28018,21,0
3156,3156,"E Madison St & 12th Ave (EB)",,47.612533,-122.317494,21,0
9860,9860,"Sand Point Way NE & Inverness Dr NE (SB)",,47.692891,-122.271327,21,0
10680,10680,"Sand Point Way NE & Inverness Dr NE (NB)",,47.692694,-122.270837,21,0
67015,67015,"Eastgate P&R Acs & 140th Ave SE - Bay 2 (WB)",,47.580431,-122.152019,19,0
67014,67014,"Eastgate P&R Acs & 140th Ave SE - Bay 1 (WB)",,47.580433,-122.152661,19,0
75310,75310,"NE 145th St & 5th Ave NE (WB)",,47.734053,-122.324088,20,0
83786,83786,"SW 320th St & 18th Ave SW (WB)",,47.315164,-122.357341,24,0
83788,83788,"SW 320th St & 10th Pl SW (WB)",,47.315183,-122.348331,24,0
83701,83701,"SW 320th St & 10th Pl SW (EB)",,47.315183,-122.34817,24,0
83785,83785,"SW 320th St & 6th Ave SW (WB)",,47.314906,-122.34171,24,0
60164,60164,"161st Ave SE & SE 174th St (SB)",,47.446703,-122.125448,24,0
59569,59569,"161st Ave SE & SE 173rd St (NB)",,47.447125,-122.125166,24,0
55945,55945,"SE Fairwood Blvd & SE 169th Pl (WB)",,47.450909,-122.12522,24,0
55944,55944,"161st Ave SE & SE 171st Pl (SB)",,47.448626,-122.124788,24,0
55946,55946,"161st Ave SE & SE 171st Pl (NB)",,47.449215,-122.124762,24,0
55943,55943,"151st Ave SE & SE Petrovitsky Rd (SB)",,47.441956,-122.139671,24,0
55947,55947,"151st Ave SE & SE Petrovitsky Rd (NB)",,47.442008,-122.139638,24,0
60173,60173,"SE 179th St & 152nd Pl SE (WB)",,47.442211,-122.138184,24,0
59563,59563,"SE 179th St & 152nd Pl SE (EB)",,47.441792,-122.137385,24,0
59565,59565,"SE 179th St & 156th Pl SE (EB)",,47.440301,-122.131551,24,0
60168,60168,"SE 179th St & 156th Pl SE (WB)",,47.44032,-122.131474,24,0
59564,59564,"SE 179th St & 154th Ave SE (EB)",,47.441074,-122.135594,24,0
60172,60172,"SE 179th St & 154th Ave SE (WB)",,47.441074,-122.135598,24,0
31140,31140,"Discovery Park Road & Texas Way (NB)",,47.66476,-122.41101,21,0
70684,70684,"Houghton P&R - Bay 1 (NB)",,47.668484,-122.185645,19,0
82716,82716,"I-405 & NE 70th Pl (SB)",,47.66844,-122.187392,19,0
82841,82841,"I-405 & NE 70th Pl (NB)",,47.668536,-122.186283,19,0
58074,58074,"68th Ave S & S 208th St (NB)",,47.416272,-122.249452,24,0
58145,58145,"68th Ave S & S 208th St (SB)",,47.415406,-122.249452,24,0
58085,58085,"68th Ave S & S 212th St (NB)",,47.412742,-122.249426,24,0
21945,21945,"Kent Des Moines P&R (SB)",,47.391823,-122.287489,24,0
27745,27745,"Lakeside Ave S & S Day St (SB)",,47.589564,-122.286301,21,0
27175,27175,"36th Ave S & S Day St (NB)",,47.588824,-122.286823,21,0
81552,81552,"132nd Ave NE & NE 110th Pl (NB)",,47.699602,-122.164577,19,0
80512,80512,"132nd Ave NE & NE 112th St (SB)",,47.70083,-122.164533,19,0
74730,74730,"120th Ave NE & Totem Lake Way (NB)",,47.712986,-122.180213,19,0
49910,49910,"Military Rd S & S 123rd St (SB)",,47.493301,-122.299335,24,0
49500,49500,"Military Rd S & S 125th Pl (NB)",,47.490925,-122.298697,24,0
85892,85892,"S 288th St & 28th Pl S (EB)",,47.343356,-122.296381,24,0
85974,85974,"S 288th St & 28th Pl S (WB)",,47.343356,-122.296466,24,0
25790,25790,"Montlake Blvd NE & NE 45th St (NB)",,47.660907,-122.298634,21,0
25210,25210,"Montlake Blvd NE & NE 45th St (WB)",,47.660978,-122.298861,21,0
3940,3940,"Boston St & Warren Ave N (EB)",,47.638264,-122.354504,21,0
72164,72164,"6th St S & 1st Ave S (NB)",,47.675019,-122.196356,19,0
79239,79239,"68th Ave S & S 204th St (SB)",,47.419568,-122.249454,24,0
58075,58075,"68th Ave S & S 204th St (NB)",,47.419842,-122.249454,24,0
36960,36960,"NE 65th St & Oswego Pl NE (WB)",,47.675858,-122.321175,21,0
75997,75997,"NE 175th St & 135th Ave NE (EB)",,47.754476,-122.157709,19,0
85064,85064,"East Marginal Way S & S Alaska St (SB)",,47.559369,-122.339392,21,0
85066,85066,"East Marginal Way S & S Hudson St (SB)",,47.557467,-122.339087,21,0
40802,40802,"East Marginal Way S & S Hudson St (NB)",,47.557664,-122.33917,21,0
74035,74035,"160th Ave NE & NE 106th St (NB)",,47.695352,-122.126672,19,0
81422,81422,"124th Ave NE & NE 145th Pl (NB)",,47.73385,-122.175591,19,0
81412,81412,"124th Ave NE & NE 146th Pl (SB)",,47.733973,-122.175581,19,0
81633,81633,"Northup Way & 130th Ave NE (WB)",,47.62807,-122.1676,19,0
67500,67500,"NE 8th St & 148th Ave NE (WB)",,47.617041,-122.143535,19,0
21140,21140,"Olson Pl SW & 3rd Ave SW (NB)",,47.519775,-122.338308,3,0
21141,21141,"Olson-Myers Way P&R (SB)",,47.519566,-122.33612,14,0
81635,81635,"Northup Way & 124th Ave NE (WB)",,47.629703,-122.176597,19,0
30440,30440,"Beacon Ave S & S Dawson St (NB)",,47.556223,-122.303334,21,0
75730,75730,"Aurora Ave N & N 192nd St (SB)",,47.767284,-122.346006,18,0
16132,16132,"N 192nd St & Aurora Ave N (EB)",,47.767775,-122.346469,18,0
75912,75912,"Shoreline P&R (NB)",,47.766791,-122.347468,18,0
15100,15100,"SW Admiral Way & SW Olga St (SB)",,47.580291,-122.376721,21,0
15521,15521,"SW Admiral Way & 38th Ave SW (WB)",,47.581179,-122.380691,21,0
15080,15080,"SW Admiral Way & 39th Ave SW (EB)",,47.581105,-122.380928,21,0
48780,48780,"S 216th Pl & 4th Pl S (EB)",,47.408276,-122.329859,24,0
73300,73300,"148th Ave NE & NE 29th Pl (NB)",,47.638064,-122.142946,19,0
62380,62380,"SE 68th St & Island Crest Way (EB)",,47.542072,-122.221852,19,0
62370,62370,"Mercer Village & SE 68th St (NB)",,47.54188,-122.224355,19,0
3881,3881,"Beacon Ave S & VA Hospital (SB)",,47.563342,-122.305554,21,0
3400,3400,"Beacon Ave S & VA Hospital (NB)",,47.56372,-122.305675,21,0
43095,43095,"N 135th St & Linden Ave N (NB)",,47.726101,-122.348124,21,0
70813,70813,"Lake Hills Connector & SE 8th St (EB)",,47.603399,-122.176474,19,0
70803,70803,"Lake Hills Connector & 134th Ave SE (EB)",,47.597648,-122.161452,19,0
68598,68598,"Lake Hills Connector & 140th Ave SE (WB)",,47.602698,-122.154145,19,0
68230,68230,"NE 8th St & 164th Ave NE (EB)",,47.616961,-122.123893,19,0
67430,67430,"NE 8th St & 164th Ave NE (WB)",,47.616956,-122.122869,19,0
19490,19490,"Elliott Ave W & W Mercer St (NB)",,47.625387,-122.366698,21,0
19500,19500,"Elliott Ave W & W Mercer Pl (NB)",,47.626363,-122.36804,21,0
26840,26840,"Westlake Ave N & Westlake Ave N (NB)",,47.644079,-122.345097,21,0
59252,59252,"112th Ave SE & SE 316th Pl (SB)",,47.31959,-122.192364,24,0
59254,59254,"112th Ave SE & SE 316th Pl (SB)",,47.317589,-122.192378,24,0
59260,59260,"112th Ave SE & SE 320th St (SB)",,47.315444,-122.192415,24,0
59096,59096,"112th Ave SE & SE 315th St (NB)",,47.319664,-122.192367,24,0
59094,59094,"112th Ave SE & SE 316th Pl (NB)",,47.317589,-122.192378,24,0
59070,59070,"112th Ave SE & SE 320th St (NB)",,47.315635,-122.192412,24,0
39443,39443,"SW Thistle St & 41st Ave SW (WB)",,47.528469,-122.384597,21,0
85855,85855,"84th Ave S & S 224th St (SB)",,47.400471,-122.228034,24,0
71970,71970,"NE Redmond Way & 160th Ave NE (WB)",,47.674767,-122.127949,19,0
75995,75995,"Woodinville P&R (SB)",,47.756775,-122.151313,19,0
53508,53508,"Kent Des Moines Rd & I-5 Ramp (EB)",,47.391897,-122.291682,24,0
70676,70676,"6th St & Kirkland Way (SB)",,47.675929,-122.196924,19,0
64380,64380,"SE Redmond Fall City Rd & 337th Pl SE (EB)",,47.56796,-121.890225,40,0
64360,64360,"SE Redmond-Fall City Rd & 337th Pl SE (WB)",,47.56794,-121.890145,40,0
77116,77116,"NE Woodinville Duvall Rd & 228th Ave NE (EB)",,47.760477,-122.035043,40,0
77112,77112,"NE Woodinville Duvall Rd & 228th Ave NE (WB)",,47.76045,-122.034975,40,0
77080,77080,"NE Woodinville Duvall Rd & Avondale Rd NE (EB)",,47.754912,-122.079346,40,0
71826,71826,"Avondale Rd NE & NE 132nd St (SB)",,47.718077,-122.087752,19,0
48880,48880,"Marine View Dr S & S 240th St (SB)",,47.387921,-122.323799,24,0
47320,47320,"Marine View Dr S & S 240th St (NB)",,47.388392,-122.323801,24,0
77073,77073,"NE Woodinville Duvall Rd & NE 175th St (EB)",,47.75489,-122.040564,40,0
71834,71834,"Avondale Rd NE & NE 168th St (NB)",,47.750686,-122.081434,40,0
77064,77064,"Avondale Rd NE & NE 168th St (SB)",,47.750503,-122.081466,40,0
64340,64340,"Bendigo Blvd N & Sydney Ave (EB)",,47.498387,-121.785783,40,0
64330,64330,"Bendigo Blvd N & Sidney Ave N (WB)",,47.49868,-121.786421,40,0
64270,64270,"SE Fall City-Snoqualmie Rd & 361st Ave SE (WB)",,47.560424,-121.857834,40,0
64295,64295,"SE Fall City-Snoqualmie Rd & 367th Ave SE (EB)",,47.558577,-121.850646,40,0
64265,64265,"SE Fall City-Snoqualmie Rd & SE 47th Pl (EB)",,47.554195,-121.840328,40,0
64290,64290,"SE Fall City-Snoqualmie Rd & 372nd Ave SE (WB)",,47.55445,-121.841743,40,0
64395,64395,"SE Fall City-Snoqualmie Rd & Tokul Rd (NB)",,47.543056,-121.836628,40,0
64435,64435,"SE Fall City-Snoqualmie Rd & Tokul Rd (SB)",,47.543971,-121.83686,40,0
64397,64397,"Railroad Av SE Ave SE & SE Northern St (SB)",,47.532213,-121.827863,40,0
64333,64333,"Railroad Ave SE & SE Northern St (NB)",,47.532251,-121.82789,40,0
64399,64399,"Railroad Ave SE & SE River St (SB)",,47.526965,-121.824019,40,0
64332,64332,"Railroad Ave SE & SE Newton St (NB)",,47.525973,-121.823262,40,0
85388,85388,"Railroad Ave SE & Meadowbrook Way SE (EB)",,47.519087,-121.817744,40,0
85386,85386,"Railroad Ave SE & Meadowbrook Way SE (NB)",,47.519059,-121.817708,40,0
85796,85796,"Main Ave S & W Park St (SB)",,47.493043,-121.78767,40,0
85792,85792,"Bendigo Blvd S & W McClellan St (SB)",,47.494803,-121.787601,40,0
62288,62288,"SE 272nd St & 152nd Ave SE (EB)",,47.358005,-122.137748,24,0
62144,62144,"SE 272nd St & 152nd Way SE (WB)",,47.357992,-122.136944,24,0
62294,62294,"SE 272nd St & 164th Ave SE (EB)",,47.358068,-122.124022,40,0
62139,62139,"SE 272nd St & 164th Ave SE (WB)",,47.358074,-122.123597,40,0
62157,62157,"SE 272nd St & 169th Pl SE (WB)",,47.358162,-122.116173,40,0
62299,62299,"SE 272nd St & 169th Pl SE (EB)",,47.358162,-122.116055,40,0
62297,62297,"SE 272nd St & 172nd Ave SE (EB)",,47.358156,-122.110125,40,0
62151,62151,"SE 272nd St & 172nd Ave SE (WB)",,47.358164,-122.110578,40,0
62301,62301,"SE Wax Rd & 176th Pl SE (NB)",,47.358978,-122.106135,40,0
62303,62303,"180th Ave SE & SE 267th Pl (NB)",,47.362787,-122.102013,40,0
62316,62316,"SE 262nd Pl & 180th Ave SE (EB)",,47.36684,-122.101511,40,0
62116,62116,"SE 262nd Pl & 180th Ave SE (WB)",,47.366843,-122.10141,40,0
62318,62318,"SE 262nd Pl & 184th Ave SE (EB)",,47.366692,-122.096181,40,0
62114,62114,"SE 262nd Pl & 184th Ave SE (WB)",,47.366684,-122.096444,40,0
62324,62324,"Timberlane Way SE & Timberlane Dr SE (SB)",,47.365889,-122.08992,40,0
62108,62108,"Timberlane Way SE & Timberlane Dr SE (NB)",,47.365919,-122.09004,40,0
62106,62106,"Timberlane Way SE & SE 265th St (NB)",,47.364645,-122.087465,40,0
62326,62326,"Timberlane Way SE & SE 265th St (SB)",,47.364388,-122.087101,40,0
62104,62104,"Timberlane Way SE & SE 267th St (NB)",,47.362908,-122.085529,40,0
62102,62102,"192nd Ave SE & SE 269th St (NB)",,47.36062,-122.085694,40,0
62332,62332,"192nd Ave SE & SE 270th Pl (SB)",,47.358948,-122.086067,40,0
62100,62100,"192nd Ave SE & SE 272nd St (NB)",,47.35854,-122.086054,40,0
62290,62290,"SE 272nd St & 156th Ave SE (EB)",,47.357992,-122.131495,24,0
99410,99410,"SR 169 & SE 216th Pl (NB)",,47.408243,-122.038142,40,0
99430,99430,"SR 169 & SE 231st St (NB)",,47.395084,-122.044988,40,0
99380,99380,"Renton Maple Valley Rd & Cedar Grove Rd SE (SB)",,47.438339,-122.066899,40,0
99382,99382,"Renton Maple Valley Rd & Cedar Grove Rd (SB)",,47.435626,-122.063062,40,0
99318,99318,"Renton Maple Valley Rd & Cedar Grove Rd (NB)",,47.43612,-122.063758,40,0
99384,99384,"Renton Maple Valley Rd SE & SE 193th St (SB)",,47.42928,-122.055605,40,0
99386,99386,"Renton Maple Valley Rd SE & SE 193th St (SB)",,47.424498,-122.051515,40,0
99416,99416,"Renton Maple Valley Rd & SE 206th St (NB)",,47.429272,-122.055601,40,0
99414,99414,"Renton Maple Valley Rd & SE 206th St (NB)",,47.42415,-122.051217,40,0
99388,99388,"Renton Maple Valley Rd & SE 207th St (SB)",,47.415732,-122.044059,40,0
99412,99412,"Renton Maple Valley Rd & SE 207th St (NB)",,47.415502,-122.043857,40,0
99390,99390,"Renton Maple Valley Rd & Cedar Grove Rd (NB)",,47.43869,-122.067395,40,0
59828,59828,"S 21st St & Smithers Ave S (EB)",,47.461015,-122.209405,24,0
59936,59936,"S 21st St & Smithers Ave S (WB)",,47.461012,-122.209608,24,0
58740,58740,"Auburn Way S & 32nd St SE (WB)",,47.279795,-122.164798,24,0
58830,58830,"Auburn Way S & 32nd St SE (EB)",,47.279398,-122.164178,24,0
58840,58840,"Auburn Way S & Academy Dr SE (EB)",,47.275008,-122.155164,24,0
58730,58730,"Auburn Way S & Academy Dr SE (WB)",,47.275077,-122.155599,24,0
37430,37430,"NE 65th St & 29th Ave NE (EB)",,47.675773,-122.296066,21,0
37420,37420,"NE 65th St & 27th Ave NE (EB)",,47.675773,-122.298231,21,0
37970,37970,"NE 65th St & 28th Ave NE (WB)",,47.675773,-122.297682,21,0
68404,68404,"NE 40th St & 156th Ave NE (EB)",,47.646049,-122.131418,19,0
68463,68463,"156th Ave NE & NE 45th St (NB)",,47.650031,-122.132389,19,0
68406,68406,"156th Ave NE & NE 51st St (NB)",,47.652023,-122.13245,19,0
68462,68462,"156th Ave NE & NE 45th St (SB)",,47.649255,-122.132369,19,0
68391,68391,"156th Ave NE & NE 51st St (SB)",,47.651957,-122.132447,19,0
57806,57806,"15th St SW & Market St (EB)",,47.295667,-122.244624,24,0
68402,68402,"156th Ave NE & NE 36th St (SB)",,47.642018,-122.132315,19,0
68401,68401,"159th Ave NE & NE 39th St (SB)",,47.643876,-122.127066,19,0
46769,46769,"Vashon Ferry Dock & 103rd Ave SW (SB)",,47.510181,-122.463945,39,0
47110,47110,"Vashon Hwy SW & SW 171st St (SB)",,47.452027,-122.460458,39,0
46850,46850,"Vashon Hwy SW & SW 171st St (NB)",,47.452104,-122.460457,39,0
46840,46840,"Vashon Hwy SW & SW Bank Rd (NB)",,47.447675,-122.460506,39,0
47240,47240,"Vashon Hwy SW & SW Bank Rd (SB)",,47.447459,-122.460505,39,0
47120,47120,"Vashon Hwy SW & SW 178th St (SB)",,47.445061,-122.460497,39,0
46830,46830,"Vashon Hwy SW & SW 178th St (NB)",,47.444845,-122.460499,39,0
46770,46770,"Vashon Hwy SW & SW Burton Dr (NB)",,47.389393,-122.4659,39,0
46792,46792,"Vashon Hwy SW & SW 204th St (SB)",,47.423161,-122.460507,39,0
46791,46791,"Vashon Hwy SW & SW 204th St (NB)",,47.423188,-122.460502,39,0
46776,46776,"Dockton Rd SW & SW Ellisport Rd (NB)",,47.417475,-122.440434,39,0
46822,46822,"SW 264th St & 99th Ave SW (WB)",,47.367177,-122.460436,39,0
24270,24270,"34th Ave W & W Raye St (NB)",,47.643059,-122.400981,21,0
24780,24780,"34th Ave W & W Raye St (SB)",,47.642977,-122.400982,21,0
30140,30140,"S Henderson St & Rainier Ave S (WB)",,47.523304,-122.270569,21,0
47235,47235,"104th Ave SW & SW Burton Dr (SB)",,47.389782,-122.467418,39,0
47255,47255,"SW Tahlequah Rd & SR 163 (WB)",,47.332907,-122.506698,39,0
58820,58820,"Auburn Way S & Poplar St SE (EB)",,47.285829,-122.17418,24,0
58750,58750,"Auburn Way S & Poplar St SE (WB)",,47.286046,-122.174512,24,0
58845,58845,"Auburn-Enumclaw Rd & SE 368th Pl (SB)",,47.271681,-122.149486,40,0
58862,58862,"Auburn-Enumclaw Rd & SE 368th Pl (NB)",,47.271884,-122.149689,40,0
58855,58855,"Auburn-Enumclaw Rd & 151st Ave SE (NB)",,47.262926,-122.139847,40,0
58858,58858,"Auburn-Enumclaw Rd & 156th Ave SE (EB)",,47.261381,-122.131918,40,0
58860,58860,"Auburn-Enumclaw Rd & SE 380th Pl (NB)",,47.260712,-122.128557,40,0
58865,58865,"Auburn-Enumclaw Rd & SE 388th St (SB)",,47.253648,-122.120821,40,0
58864,58864,"Auburn-Enumclaw Rd & SE 388th St (NB)",,47.253719,-122.120869,40,0
58872,58872,"Auburn-Enumclaw Rd & SE 392nd St (SB)",,47.249954,-122.118041,40,0
58870,58870,"Auburn-Enumclaw Rd & SE 392nd St (NB)",,47.250444,-122.118404,40,0
58882,58882,"Auburn-Enumclaw Rd & SE 400th St (SB)",,47.242624,-122.111963,40,0
58880,58880,"Auburn-Enumclaw Rd & SE 400th St (NB)",,47.24238,-122.111777,40,0
58886,58886,"Auburn-Enumclaw Rd & SE 408th St (SB)",,47.235891,-122.107293,40,0
58888,58888,"Auburn-Enumclaw Rd & SE 408th St (NB)",,47.23574,-122.107187,40,0
58900,58900,"Auburn-Enumclaw Rd & SE 416th St (SB)",,47.22773,-122.102213,40,0
58902,58902,"Auburn-Enumclaw Rd & SE 416th St (NB)",,47.228421,-122.102629,40,0
58912,58912,"Auburn-Enumclaw Rd & 188th Ave SE (NB)",,47.218564,-122.091172,40,0
58910,58910,"Auburn-Enumclaw Rd & 188th Ave SE (SB)",,47.217895,-122.09026,40,0
58960,58960,"SE 436th St & 228th Ave SE (EB)",,47.210179,-122.037875,40,0
58964,58964,"SE 436th St & 228th Ave SE (WB)",,47.210173,-122.038799,40,0
58962,58962,"SE 436th St & 236th Ave SE (WB)",,47.210157,-122.027359,40,0
58965,58965,"SE 436th St & 236th Ave SE (EB)",,47.210157,-122.026387,40,0
59035,59035,"Semanski St & Warner Ave (NB)",,47.192446,-122.005529,40,0
58540,58540,"Griffin Ave & Fell St (WB)",,47.20597,-121.994526,40,0
59020,59020,"Griffin Ave & Montgomery Ave (EB)",,47.20603,-121.994581,40,0
58550,58550,"Griffin Ave & Pioneer St (WB)",,47.206581,-121.997866,40,0
75417,75417,"West Stevens Way NE & Okanogan Lane NE",,47.652094,-122.30863,21,0
59010,59010,"Griffin Ave & Pioneer St (EB)",,47.206578,-121.997665,40,0
58560,58560,"Griffin Ave & Garfield St (WB)",,47.206581,-122.00073,40,0
58990,58990,"Griffin Ave & Florence St (EB)",,47.206575,-122.002541,40,0
58570,58570,"Griffin Ave & Florence St (WB)",,47.206575,-122.003179,40,0
58580,58580,"Griffin Ave & Farrelly St (WB)",,47.206564,-122.008487,40,0
58980,58980,"Griffin Ave & Farrelly St (EB)",,47.206567,-122.008568,40,0
59032,59032,"Wells St & Griffin Ave (SB)",,47.20412,-121.99054,40,0
58078,58078,"S 212th St & 72nd Ave S (EB)",,47.41209,-122.242992,24,0
79227,79227,"68th Ave S & S 216th St (SB)",,47.408059,-122.249407,24,0
79228,79228,"68th Ave S & S 220th St (SB)",,47.405163,-122.2494,24,0
79238,79238,"68th Ave S & S 216th St (NB)",,47.408292,-122.249408,24,0
79237,79237,"68th Ave S & S 220th St (NB)",,47.405286,-122.249398,24,0
79229,79229,"68th Ave S & S 224th St (SB)",,47.402151,-122.249386,24,0
79236,79236,"68th Ave S & S 224th St (NB)",,47.401463,-122.24938,24,0
79234,79234,"68th Ave S & S 228th St (NB)",,47.39803,-122.24936,24,0
80515,80515,"132nd Ave NE & NE 117th St (NB)",,47.704296,-122.164437,19,0
80509,80509,"132nd Ave NE & NE 117th St (SB)",,47.704294,-122.164437,19,0
1610,1610,"Prefontaine Pl S & Yesler Way (NB)",,47.601596,-122.330003,21,0
35290,35290,"NE 103rd St & 5th Ave NE (WB)",,47.703143,-122.323711,21,0
72120,72120,"NE 70th St & 120th Ave NE (WB)",,47.668226,-122.180693,19,0
47974,47974,"S 272nd St & S Star Lake Rd (EB)",,47.357937,-122.304281,24,0
62313,62313,"SE 272nd St & 213th Pl SE (EB)",,47.358,-122.057302,40,0
62089,62089,"SE 272nd St & 213th Pl SE (WB)",,47.357997,-122.057682,40,0
62309,62309,"SE 272nd St & 204th Ave SE (EB)",,47.358058,-122.0701,40,0
62094,62094,"SE 272nd St & 204th Ave SE (WB)",,47.35806,-122.070262,40,0
62307,62307,"SE 272nd St & 201st Ave SE (EB)",,47.358071,-122.075229,40,0
64370,64370,"SE 42nd Pl & 334th Pl SE (EB)",,47.568979,-121.89392,40,0
15451,15451,"SW Spokane St & Chelan Ave SW (WB)",,47.571651,-122.363379,21,0
57111,57111,"SE 240th St & 124th Ave SE (EB)",,47.386907,-122.175107,24,0
57112,57112,"SE 240th St & 127th Pl SE (EB)",,47.38691,-122.170153,24,0
57113,57113,"SE 240th St & 132nd Ave SE (EB)",,47.386918,-122.166061,24,0
57117,57117,"SE 240th St & 124th Ave SE (WB)",,47.386907,-122.175087,24,0
57118,57118,"SE 240th St & 127th Pl SE (WB)",,47.38691,-122.170436,24,0
57119,57119,"SE 240th St & 132nd Ave SE (WB)",,47.386915,-122.166704,24,0
60638,60638,"S 320th St & 23rd Ave S (WB)",,47.315104,-122.30407,24,0
60640,60640,"S 320th St & 20th Ave S (WB)",,47.315123,-122.309041,24,0
32442,32442,"Harbor Ave SW & SW Spokane St (SB)",,47.571996,-122.370743,21,0
32601,32601,"Harbor Ave SW & 30th Ave SW (NB)",,47.57201,-122.370743,21,0
15140,15140,"SW Spokane St & 26th Ave SW (EB)",,47.571511,-122.365254,21,0
45320,45320,"S 2nd St & Shattuck Ave S (WB)",,47.481329,-122.214642,24,0
28700,28700,"3rd Ave NW & NW 105th St (NB)",,47.705343,-122.360787,21,0
27990,27990,"3rd Ave NW & NW 105th St (SB)",,47.704847,-122.360785,21,0
28720,28720,"3rd Ave NW & NW 110th St (NB)",,47.708985,-122.36084,21,0
27970,27970,"3rd Ave NW & NW 110th St (SB)",,47.70882,-122.360838,21,0
27950,27950,"3rd Ave NW & NW 115th St (SB)",,47.712333,-122.360881,21,0
28740,28740,"3rd Ave NW & NW 115th St (NB)",,47.712577,-122.360882,21,0
27940,27940,"3rd Ave NW & NW 117th St (SB)",,47.713958,-122.36091,21,0
28750,28750,"3rd Ave NW & NW 117th St (NB)",,47.714342,-122.360913,21,0
28760,28760,"3rd Ave NW & NW 120th St (NB)",,47.716186,-122.360927,21,0
27930,27930,"3rd Ave NW & NW 120th St (SB)",,47.716049,-122.360929,21,0
27910,27910,"3rd Ave NW & NW 125th St (SB)",,47.719247,-122.360967,21,0
27820,27820,"3rd Ave NW & NW 137th St (SB)",,47.728361,-122.360957,21,0
28870,28870,"3rd Ave NW & NW 137th St (NB)",,47.729005,-122.360957,21,0
27810,27810,"3rd Ave NW & NW 140th St (SB)",,47.730458,-122.360952,21,0
28880,28880,"3rd Ave NW & NW 140th St (NB)",,47.730786,-122.360952,21,0
28890,28890,"3rd Ave NW & NW 143rd St (NB)",,47.73257,-122.360946,21,0
27790,27790,"3rd Ave NW & NW 145th St (SB)",,47.733532,-122.360942,21,0
70702,70702,"3rd Ave NW & NW Richmond Beach Rd (NB)",,47.76536,-122.361224,18,0
74990,74990,"3rd Ave NW & NW 191st St (SB)",,47.766972,-122.361221,18,0
70704,70704,"3rd Ave NW & NW 191st St (NB)",,47.767523,-122.361214,18,0
70706,70706,"3rd Ave NW & NW 195th St (NB)",,47.770416,-122.361207,18,0
74980,74980,"3rd Ave NW & NW 195th St (SB)",,47.770087,-122.361211,18,0
74970,74970,"3rd Ave NW & NW 198th St (SB)",,47.772354,-122.361236,18,0
70708,70708,"3rd Ave NW & NW 198th St (NB)",,47.772929,-122.361245,18,0
74960,74960,"3rd Ave NW & NW 200th St (SB)",,47.773833,-122.361263,18,0
41360,41360,"3rd Ave W & W Smith St (NB)",,47.641303,-122.360941,21,0
41300,41300,"3rd Ave W & W McGraw St (SB)",,47.63984,-122.360955,21,0
41290,41290,"3rd Ave W & W Smith St (SB)",,47.641533,-122.360938,21,0
41280,41280,"3rd Ave W & W Raye St (SB)",,47.643065,-122.360932,21,0
41370,41370,"3rd Ave W & W Raye St (NB)",,47.643424,-122.360903,21,0
41380,41380,"3rd Ave W & W Armour St (NB)",,47.645334,-122.3609,21,0
41270,41270,"3rd Ave W & W Fulton St (SB)",,47.645304,-122.3609,21,0
41390,41390,"3rd Ave W & W Dravus St (NB)",,47.649096,-122.360902,21,0
531,531,"3rd Ave & James St (NB)",,47.602602,-122.331275,21,0
500,500,"3rd Ave & James St (SB)",,47.602849,-122.331495,21,0
538,538,"3rd Ave & Columbia St (NB)",,47.604054,-122.332601,21,0
490,490,"3rd Ave & Cherry St (SB)",,47.603613,-122.332201,21,0
480,480,"3rd Ave & Marion St (SB)",,47.60503,-122.333491,21,0
558,558,"3rd Ave & Seneca St (NB)",,47.607008,-122.335307,21,0
468,468,"3rd Ave & Seneca St (SB)",,47.606532,-122.334866,21,0
570,570,"3rd Ave & Union St (NB)",,47.608647,-122.336806,21,0
450,450,"3rd Ave & Union St (SB)",,47.608285,-122.33647,21,0
578,578,"3rd Ave & Pike St (NB)",,47.610447,-122.338446,21,0
590,590,"3rd Ave & Pine St (NB)",,47.611097,-122.339052,21,0
430,430,"3rd Ave & Pine St (SB)",,47.61082,-122.338795,21,0
600,600,"3rd Ave & Virginia St (NB)",,47.612936,-122.341821,21,0
420,420,"3rd Ave & Virginia St (SB)",,47.612483,-122.341058,21,0
400,400,"3rd Ave & Bell St (SB)",,47.614492,-122.344456,21,0
1690,1690,"3rd Ave & Vine St (NB)",,47.616901,-122.348527,21,0
2220,2220,"3rd Ave & Cedar St (SB)",,47.616819,-122.34839,21,0
74390,74390,"3rd St & 5th Ave (SB)",,47.678716,-122.203841,19,0
74580,74580,"3rd St & 5th Ave (NB)",,47.679428,-122.203859,19,0
74590,74590,"3rd St & 7th Ave (NB)",,47.680382,-122.203889,19,0
74380,74380,"3rd St & 7th Ave (SB)",,47.680291,-122.203886,19,0
74370,74370,"3rd St & 9th Ave (SB)",,47.681867,-122.20394,19,0
74600,74600,"3rd St & 9th Ave (NB)",,47.682281,-122.20395,19,0
74610,74610,"3rd St & 10th Ave (NB)",,47.683185,-122.204253,19,0
74340,74340,"3rd St & 13th Ave (SB)",,47.685309,-122.204465,19,0
74640,74640,"3rd St & 15th Ave (NB)",,47.687356,-122.20454,19,0
46440,46440,"S 3rd St & Rainier Ave S (EB)",,47.479742,-122.215818,24,0
46450,46450,"S 3rd St & Shattuck Ave S (EB)",,47.479728,-122.212684,24,0
26220,26220,"4th Ave NE & NE 65th St (SB)",,47.675981,-122.324499,21,0
620,620,"4th Ave S & S Jackson St (NB)",,47.59881,-122.329007,21,0
30600,30600,"4th Ave S & S Holgate St (NB)",,47.586388,-122.329077,21,0
30690,30690,"4th Ave S & S Holgate St (SB)",,47.585659,-122.329078,21,0
30700,30700,"4th Ave S & S Walker St (SB)",,47.583719,-122.32907,21,0
30590,30590,"4th Ave S & S Walker St (NB)",,47.583678,-122.329067,21,0
30570,30570,"4th Ave S & S Lander St (NB)",,47.580228,-122.32907,21,0
30720,30720,"4th Ave S & S Lander St (SB)",,47.579367,-122.329069,21,0
30560,30560,"4th Ave S & S Forest St (NB)",,47.577668,-122.329071,21,0
30748,30748,"4th Ave S & S Horton St (SB)",,47.574684,-122.329072,21,0
30550,30550,"4th Ave S & S Hanford St (NB)",,47.575219,-122.329078,21,0
45910,45910,"4th Ave S & S Dawson St (SB)",,47.555387,-122.329547,21,0
45820,45820,"4th Ave S & S Bennett St (NB)",,47.55513,-122.32955,21,0
45920,45920,"4th Ave S & S Brandon St (SB)",,47.553886,-122.329562,21,0
45810,45810,"4th Ave S & S Lucile St (NB)",,47.553768,-122.329563,21,0
45800,45800,"4th Ave S & S Orcas St (NB)",,47.552091,-122.329577,21,0
45940,45940,"4th Ave S & S Mead St (SB)",,47.550781,-122.329589,21,0
45790,45790,"4th Ave S & S Fidalgo St (NB)",,47.550359,-122.329591,21,0
45960,45960,"4th Ave S & S Front St (SB)",,47.548224,-122.329598,21,0
45780,45780,"4th Ave S & S Front St (NB)",,47.548183,-122.329594,21,0
45770,45770,"4th Ave S & S Michigan St (NB)",,47.545744,-122.329601,21,0
48280,48280,"4th Ave SW & SW 102nd St (SB)",,47.511715,-122.339456,24,0
48290,48290,"4th Ave SW & SW 104th St (SB)",,47.509986,-122.339271,24,0
47920,47920,"4th Ave SW & SW 104th St (NB)",,47.510206,-122.339281,24,0
47900,47900,"4th Ave SW & SW 108th St (NB)",,47.506945,-122.339168,24,0
48310,48310,"4th Ave SW & SW 108th St (SB)",,47.506369,-122.33915,24,0
47890,47890,"4th Ave SW & SW 110th St (NB)",,47.504777,-122.339093,24,0
53870,53870,"4th Ave SW & SW 112th St (NB)",,47.503303,-122.339047,24,0
53860,53860,"4th Ave SW & SW 114th St (NB)",,47.501409,-122.339055,24,0
53910,53910,"4th Ave SW & SW 115th St (SB)",,47.500554,-122.339061,24,0
53850,53850,"4th Ave SW & SW 116th St (NB)",,47.499825,-122.339075,24,0
53740,53740,"4th Ave SW & SW 152nd St (NB)",,47.466674,-122.339208,24,0
53975,53975,"4th Ave SW & SW 156th St (SB)",,47.4637,-122.339221,24,0
53720,53720,"4th Ave SW & SW 156th St (NB)",,47.463602,-122.339222,24,0
640,640,"4th Ave & James St (NB)",,47.602975,-122.330071,21,0
648,648,"4th Ave & Cherry St (NB)",,47.604279,-122.33127,21,0
660,660,"4th Ave & Madison St (NB)",,47.605962,-122.332809,21,0
670,670,"4th Ave & Seneca St (NB)",,47.607455,-122.334176,21,0
730,730,"4th Ave & Lenora St (NB)",,47.6141,-122.341802,21,0
79248,79248,"4th Ave N & W Smith St (NB)",,47.38369,-122.237366,24,0
54155,54155,"NE 4th St & Monroe Ave NE (WB)",,47.488571,-122.175709,24,0
56790,56790,"NE 4th St & Monroe Ave NE (EB)",,47.488571,-122.174477,24,0
56795,56795,"NE 4th St & Union Ave NE (EB)",,47.488585,-122.163783,24,0
54152,54152,"NE 4th St & Queen Ave NE (WB)",,47.488571,-122.169266,24,0
54150,54150,"NE 4th St & Union Ave NE (WB)",,47.48859,-122.164569,24,0
68042,68042,"NE 4th St & 105th Ave NE (EB)",,47.613837,-122.200525,19,0
3980,3980,"5th Ave N & Newton St (SB)",,47.636305,-122.347139,21,0
4080,4080,"5th Ave N & Denny Way (SB)",,47.619214,-122.347625,21,0
4220,4220,"5th Ave N & Broad St (NB)",,47.621293,-122.347615,21,0
4070,4070,"5th Ave N & Broad St (SB)",,47.621288,-122.347615,21,0
4230,4230,"5th Ave N & Republican St (NB)",,47.62359,-122.347582,21,0
860,860,"5th Ave & James St (NB)",,47.60355,-122.329072,21,0
820,820,"5th Ave & Jefferson St (SB)",,47.603125,-122.328683,21,0
790,790,"5th Ave & Seneca St (SB)",,47.608209,-122.333333,21,0
760,760,"5th Ave & Pine St (SB)",,47.61176,-122.336584,21,0
23750,23750,"5th Ave NE & NE 103rd St (NB)",,47.703534,-122.323169,21,0
23770,23770,"5th Ave NE & NE 106th St (NB)",,47.706127,-122.32322,21,0
23800,23800,"5th Ave NE & NE 115th St (NB)",,47.712476,-122.323403,21,0
23200,23200,"5th Ave NE & NE 115th St (SB)",,47.712276,-122.323393,21,0
23180,23180,"5th Ave NE & NE 120th St (SB)",,47.715581,-122.323493,21,0
23820,23820,"5th Ave NE & NE 120th St (NB)",,47.716107,-122.32351,21,0
23170,23170,"5th Ave NE & NE 123rd St (SB)",,47.717724,-122.323555,21,0
75307,75307,"5th Ave NE & NE 145th St (NB)",,47.734434,-122.32359,20,0
81256,81256,"5th Ave NE & NE 148th St (SB)",,47.736188,-122.323567,20,0
81300,81300,"5th Ave NE & NE 148th St (NB)",,47.736716,-122.323577,18,0
81254,81254,"5th Ave NE & NE 152nd St (SB)",,47.738725,-122.323632,18,0
81302,81302,"5th Ave NE & NE 152nd St (NB)",,47.739057,-122.323644,18,0
77780,77780,"5th Ave NE & NE 155th St (NB)",,47.741778,-122.323731,18,0
77790,77790,"5th Ave NE & NE 158th St (NB)",,47.743778,-122.323791,18,0
77580,77580,"5th Ave NE & NE 158th St (SB)",,47.743668,-122.323788,18,0
77800,77800,"5th Ave NE & NE 160th St (NB)",,47.745167,-122.323834,18,0
77570,77570,"5th Ave NE & NE 161st St (SB)",,47.745466,-122.323842,18,0
77810,77810,"5th Ave NE & NE 163rd St (NB)",,47.747562,-122.323909,18,0
77560,77560,"5th Ave NE & NE 163rd St (SB)",,47.747782,-122.323914,18,0
81304,81304,"5th Ave NE & NE 165th St (NB)",,47.748891,-122.323944,18,0
81248,81248,"5th Ave NE & NE 170th St (SB)",,47.752037,-122.324009,18,0
81246,81246,"5th Ave NE & NE 174th St (SB)",,47.755093,-122.324076,18,0
72163,72163,"6th St S & 5th Ave S (NB)",,47.671928,-122.196323,19,0
70679,70679,"6th St S & 9th Ave S (SB)",,47.668758,-122.196286,19,0
72161,72161,"6th St S & NE 68th St (NB)",,47.667631,-122.196271,19,0
21765,21765,"6th Ave S & S Royal Brougham Way (NB)",,47.590882,-122.32598,21,0
2610,2610,"6th Ave W & W Galer St (SB)",,47.632449,-122.365063,21,0
2790,2790,"6th Ave W & W Garfield St (NB)",,47.633701,-122.365043,21,0
2600,2600,"6th Ave W & W Blaine St (SB)",,47.634521,-122.365033,21,0
2800,2800,"6th Ave W & W Howe St (NB)",,47.636157,-122.365014,21,0
2590,2590,"6th Ave W & W Howe St (SB)",,47.63602,-122.365011,21,0
2580,2580,"6th Ave W & W Crockett St (SB)",,47.637557,-122.364992,21,0
2810,2810,"6th Ave W & W Crockett St (NB)",,47.637968,-122.364983,21,0
2820,2820,"6th Ave W & W McGraw St (NB)",,47.63984,-122.364961,21,0
2830,2830,"6th Ave W & W Smith St (NB)",,47.641626,-122.364935,21,0
2840,2840,"6th Ave W & W Raye St (NB)",,47.643002,-122.364914,21,0
74392,74392,"6th St & 4th Ave (SB)",,47.677702,-122.196991,19,0
5417,5417,"7th Ave NE & NE 42nd St (NB)",,47.658062,-122.320858,21,0
5419,5419,"I-5 & NE 45th St (NB)",,47.661608,-122.320921,21,0
2550,2550,"7th Ave W & W Pleasant Pl (SB)",,47.642648,-122.366256,21,0
6220,6220,"7th Ave & Blanchard St (NB)",,47.616827,-122.340467,21,0
80862,80862,"8th St NE & Harvey Rd NE (EB)",,47.31526,-122.213266,24,0
59110,59110,"8th St NE & Pike St NE (WB)",,47.315411,-122.210192,24,0
28250,28250,"8th Ave NW & NW 46th St (SB)",,47.661932,-122.366201,21,0
28450,28450,"8th Ave NW & NW 50th St (NB)",,47.665198,-122.366198,21,0
28230,28230,"8th Ave NW & NW 51st St (SB)",,47.665456,-122.366199,21,0
28210,28210,"8th Ave NW & NW Market St (SB)",,47.668415,-122.366192,21,0
28470,28470,"8th Ave NW & NW Market St (NB)",,47.668928,-122.366194,21,0
28490,28490,"8th Ave NW & NW 60th St (NB)",,47.672539,-122.366174,21,0
28180,28180,"8th Ave NW & NW 61st St (SB)",,47.672827,-122.366163,21,0
28160,28160,"8th Ave NW & NW 65th St (SB)",,47.675789,-122.366045,21,0
28510,28510,"8th Ave NW & NW 65th St (NB)",,47.67631,-122.36597,21,0
28530,28530,"8th Ave NW & NW 70th St (NB)",,47.679732,-122.36605,21,0
28140,28140,"8th Ave NW & NW 70th St (SB)",,47.679321,-122.366116,21,0
28130,28130,"8th Ave NW & NW 73rd St (SB)",,47.681201,-122.366114,21,0
28540,28540,"8th Ave NW & NW 73rd St (NB)",,47.681955,-122.365987,21,0
28550,28550,"8th Ave NW & NW 75th St (NB)",,47.683451,-122.365985,21,0
28120,28120,"8th Ave NW & NW 75th St (SB)",,47.68335,-122.366104,21,0
28100,28100,"8th Ave NW & NW 80th St (SB)",,47.686679,-122.366043,21,0
28575,28575,"8th Ave NW & NW 80th St (NB)",,47.687197,-122.366029,21,0
28080,28080,"8th Ave NW & NW 85th St (SB)",,47.690299,-122.366077,21,0
28060,28060,"8th Ave NW & NW 90th St (SB)",,47.694009,-122.366027,21,0
28630,28630,"8th Ave NW & NW 90th St (NB)",,47.6945,-122.36603,21,0
28650,28650,"8th Ave NW & NW 95th St (NB)",,47.698128,-122.366051,21,0
28040,28040,"8th Ave NW & NW 95th St (SB)",,47.698544,-122.36605,21,0
28670,28670,"8th Ave NW & NW 100th Pl (NB)",,47.701161,-122.366067,21,0
28810,28810,"8th Ave NW & NW 127th St (NB)",,47.721639,-122.36638,21,0
28830,28830,"8th Ave NW & NW 132nd St (NB)",,47.724903,-122.366356,21,0
27860,27860,"8th Ave NW & NW 132nd St (SB)",,47.724736,-122.366362,21,0
49724,49724,"8th Ave S & S Monroe St (SB)",,47.531311,-122.32285,21,0
49733,49733,"8th Ave S & S Kenyon St (NB)",,47.531635,-122.322841,21,0
49732,49732,"8th Ave S & S Southern St (NB)",,47.530064,-122.32287,21,0
49725,49725,"8th Ave S & S Southern St (SB)",,47.529955,-122.322871,21,0
49731,49731,"8th Ave S & S Thistle St (NB)",,47.528409,-122.322899,21,0
49726,49726,"8th Ave S & S Thistle St (SB)",,47.527834,-122.322907,21,0
49730,49730,"8th Ave S & S Cloverdale St (NB)",,47.527149,-122.32292,21,0
50250,50250,"8th Ave S & Des Moines Memorial Dr S (SB)",,47.439131,-122.324231,24,0
49190,49190,"8th Ave S & Des Moines Memorial Dr S (NB)",,47.437972,-122.324331,24,0
49180,49180,"8th Ave S & S 186th St (NB)",,47.436402,-122.324489,24,0
50260,50260,"8th Ave S & S 186th St (SB)",,47.436144,-122.324513,24,0
50270,50270,"8th Ave S & S 188th St (SB)",,47.433999,-122.324706,24,0
50280,50280,"8th Ave S & S 192nd St (SB)",,47.430924,-122.324977,24,0
49160,49160,"8th Ave S & S 192nd St (NB)",,47.431034,-122.324979,24,0
50290,50290,"8th Ave S & S 194th St (SB)",,47.428913,-122.324926,24,0
49150,49150,"8th Ave S & S 194th St (NB)",,47.428414,-122.324924,24,0
50310,50310,"8th Ave S & S 198th St (SB)",,47.425792,-122.32486,24,0
49120,49120,"8th Ave S & S 200th St (NB)",,47.423336,-122.324799,24,0
83650,83650,"8th Ave S & S 308th St (SB)",,47.326043,-122.324006,24,0
72940,72940,"NE 8th St & 92nd Ave NE (WB)",,47.617419,-122.217341,19,0
73042,73042,"NE 8th St & 92nd Ave NE (EB)",,47.617419,-122.217312,19,0
73044,73044,"NE 8th St & 94th Ave NE (EB)",,47.617424,-122.214304,19,0
73048,73048,"NE 8th St & 98th Ave NE (EB)",,47.617432,-122.210198,19,0
72932,72932,"NE 8th St & 98th Ave NE (WB)",,47.617432,-122.21019,19,0
70596,70596,"NE 8th St & 100th Ave NE (EB)",,47.617435,-122.207413,19,0
70619,70619,"NE 8th St & 100th Ave NE (WB)",,47.617438,-122.207543,19,0
70608,70608,"NE 8th St & 102nd Ave NE (WB)",,47.617424,-122.20484,19,0
85669,85669,"NE 8th St & 102nd Ave NE (EB)",,47.617421,-122.204149,19,0
73049,73049,"NE 8th St & 106th Ave NE (EB)",,47.617421,-122.19921,19,0
67612,67612,"NE 8th St & 106th Ave NE (WB)",,47.617421,-122.199889,19,0
67570,67570,"NE 8th St & 124th Ave NE (WB)",,47.617334,-122.175974,19,0
68100,68100,"NE 8th St & 124th Ave NE (EB)",,47.617334,-122.174604,19,0
68130,68130,"NE 8th St & 131st Ave NE (EB)",,47.617194,-122.162476,19,0
67540,67540,"NE 8th St & 134th Ave NE (WB)",,47.617197,-122.163159,19,0
68150,68150,"NE 8th St & 140th Ave NE (EB)",,47.617145,-122.153094,19,0
68180,68180,"NE 8th St & 148th Ave NE (EB)",,47.617032,-122.142027,19,0
68200,68200,"NE 8th St & 156th Ave NE (EB)",,47.616997,-122.131218,19,0
67460,67460,"NE 8th St & 160th Ave NE (WB)",,47.616997,-122.130242,19,0
67450,67450,"NE 8th St & 160th Ave NE (WB)",,47.616972,-122.126084,19,0
68240,68240,"NE 8th St & 164th Ave NE (EB)",,47.616942,-122.121304,19,0
67420,67420,"NE 8th St & 165th Ave NE (WB)",,47.616934,-122.120434,19,0
68250,68250,"NE 8th St & 165th Ave NE (EB)",,47.61692,-122.119605,19,0
68260,68260,"NE 8th St & 167th Ave NE (EB)",,47.616884,-122.117516,19,0
67410,67410,"NE 8th St & 167th Ave NE (WB)",,47.61689,-122.1178,19,0
68270,68270,"NE 8th St & 170th Pl NE (EB)",,47.61684,-122.114708,19,0
67400,67400,"NE 8th St & 170th Pl NE (WB)",,47.616838,-122.114565,19,0
68280,68280,"NE 8th St & 172nd Ave NE (EB)",,47.616791,-122.111343,19,0
67390,67390,"NE 8th St & 172nd Ave NE (WB)",,47.616794,-122.111505,19,0
67380,67380,"NE 8th St & 172nd Pl NE (WB)",,47.616777,-122.109355,19,0
68290,68290,"NE 8th St & 172nd Pl NE (EB)",,47.616775,-122.108701,19,0
59240,59240,"SE 320th St & 104th Pl SE (EB)",,47.315482,-122.20399,24,0
59050,59050,"SE 320th St & 104th Ave SE (WB)",,47.315452,-122.204674,24,0
51920,51920,"9th Ave SW & SW Kenyon St (SB)",,47.531722,-122.346794,21,0
51770,51770,"9th Ave SW & SW Elmgrove St (NB)",,47.530358,-122.346783,21,0
51930,51930,"9th Ave SW & SW Elmgrove St (SB)",,47.529889,-122.34678,21,0
51760,51760,"9th Ave SW & SW Thistle St (NB)",,47.528533,-122.346773,21,0
51940,51940,"9th Ave SW & SW Thistle St (SB)",,47.528053,-122.346767,21,0
51740,51740,"9th Ave SW & SW Trenton St (NB)",,47.524967,-122.346752,21,0
51960,51960,"9th Ave SW & SW Trenton St (SB)",,47.524403,-122.346751,21,0
51970,51970,"9th Ave SW & SW Henderson St (SB)",,47.523082,-122.346743,21,0
2520,2520,"9th Ave W & W Armour St (NB)",,47.645315,-122.369389,21,0
41930,41930,"9th Ave & Alder St (NB)",,47.604,-122.323344,21,0
42010,42010,"9th Ave & Alder St (SB)",,47.603504,-122.322891,21,0
12910,12910,"9th Ave & Jefferson St (SB)",,47.604904,-122.324173,21,0
41940,41940,"9th Ave & James St (NB)",,47.605984,-122.325155,21,0
42000,42000,"9th Ave & Cherry St (SB)",,47.606121,-122.325288,21,0
41950,41950,"9th Ave & Columbia St (NB)",,47.607165,-122.326242,21,0
41990,41990,"9th Ave & Marion St (SB)",,47.607469,-122.326518,21,0
41955,41955,"9th Ave & Spring St (NB)",,47.608949,-122.327873,21,0
11191,11191,"10th Ave E & E Mercer St (SB)",,47.623951,-122.319906,21,0
11230,11230,"10th Ave E & E Prospect St (NB)",,47.628859,-122.320225,21,0
11010,11010,"10th Ave E & E Prospect St (SB)",,47.628731,-122.320226,21,0
11250,11250,"10th Ave E & E Galer St (NB)",,47.632211,-122.320222,21,0
10990,10990,"10th Ave E & E Galer St (SB)",,47.632118,-122.320223,21,0
11270,11270,"10th Ave E & E Howe St (NB)",,47.636154,-122.320101,21,0
10970,10970,"10th Ave E & E Newton St (SB)",,47.637025,-122.320094,21,0
10950,10950,"10th Ave E & E Miller St (SB)",,47.641155,-122.320077,21,0
11290,11290,"10th Ave E & E Miller St (NB)",,47.641566,-122.320072,21,0
10940,10940,"10th Ave E & E Roanoke St (SB)",,47.642933,-122.32007,21,0
2450,2450,"10th Ave W & W Galer St (NB)",,47.632498,-122.370418,21,0
2090,2090,"10th Ave W & W Galer St (SB)",,47.632364,-122.370423,21,0
2080,2080,"10th Ave W & W Blaine St (SB)",,47.634556,-122.370389,21,0
2460,2460,"10th Ave W & W Blaine St (NB)",,47.634956,-122.370384,21,0
2070,2070,"10th Ave W & W Howe St (SB)",,47.635762,-122.37037,21,0
2470,2470,"10th Ave W & W Howe St (NB)",,47.636148,-122.370365,21,0
2060,2060,"10th Ave W & W Crockett St (SB)",,47.637584,-122.370344,21,0
2480,2480,"10th Ave W & W Crockett St (NB)",,47.637973,-122.370339,21,0
2050,2050,"10th Ave W & W McGraw St (SB)",,47.63945,-122.370313,21,0
2490,2490,"10th Ave W & W McGraw St (NB)",,47.639793,-122.370199,21,0
2030,2030,"10th Ave W & W Halladay St (SB)",,47.641788,-122.370078,21,0
2500,2500,"10th Ave W & W Halladay St (NB)",,47.642185,-122.370073,21,0
2020,2020,"10th Ave W & W Bothwell St (SB)",,47.643481,-122.370212,21,0
2510,2510,"10th Ave W & W Newell St (NB)",,47.644454,-122.370204,21,0
2010,2010,"10th Ave W & W Armour St (SB)",,47.645109,-122.370188,21,0
2440,2440,"Olympic Way W & W Lee St (NB)",,47.631235,-122.370209,21,0
46570,46570,"NE 10th St & Index Ave NE (EB)",,47.499464,-122.179834,24,0
45170,45170,"NE 10th St & Index Ave NE (WB)",,47.499343,-122.179576,24,0
9630,9630,"11th Ave NE & NE 42nd St (NB)",,47.658572,-122.316664,21,0
9650,9650,"11th Ave NE & NE 45th St (NB)",,47.661781,-122.316578,21,0
9660,9660,"11th Ave NE & NE 47th St (NB)",,47.663365,-122.316366,21,0
23500,23500,"11th Ave NE & NE 50th St (NB)",,47.665171,-122.316346,21,0
23510,23510,"11th Ave NE & NE 52nd St (NB)",,47.666711,-122.316326,21,0
23520,23520,"11th Ave NE & NE 55th St (NB)",,47.668758,-122.316303,21,0
23530,23530,"11th Ave NE & NE Ravenna Blvd (NB)",,47.671344,-122.316212,21,0
10910,10910,"12th Ave NE & NE 47th St (SB)",,47.662263,-122.315379,21,0
23540,23540,"12th Ave NE & NE 61st St (NB)",,47.672646,-122.31567,21,0
23580,23580,"12th Ave NE & NE 70th St (NB)",,47.679757,-122.315663,21,0
41900,41900,"12th Ave S & S Jackson St (NB)",,47.599434,-122.317218,21,0
3700,3700,"12th Ave S & S Jackson St (SB)",,47.598774,-122.31723,21,0
3710,3710,"12th Ave S & S Weller St (SB)",,47.5973,-122.317246,21,0
3570,3570,"12th Ave S & S Judkins St (NB)",,47.592712,-122.317293,21,0
3550,3550,"12th Ave S & S Atlantic St (NB)",,47.590246,-122.317297,21,0
3541,3541,"12th Ave S & S Massachusetts St (NB)",,47.588755,-122.317288,21,0
52170,52170,"Ambaum Blvd SW & SW 122nd St (SB)",,47.493991,-122.349969,24,0
51550,51550,"Ambaum Blvd SW & SW 122nd St (NB)",,47.49429,-122.349969,24,0
51540,51540,"Ambaum Blvd SW & SW 124th St (NB)",,47.492265,-122.349982,24,0
52180,52180,"Ambaum Blvd SW & SW 124th St (SB)",,47.4913,-122.349986,24,0
51520,51520,"Ambaum Blvd SW & SW 128th St (NB)",,47.488705,-122.350001,24,0
46600,46600,"NE 12th St & Lynnwood Ave NE (EB)",,47.503089,-122.176694,24,0
45140,45140,"NE 12th St & Lynnwood Ave NE (WB)",,47.503089,-122.176455,24,0
45130,45130,"NE 12th St & Olympia Ave NE (WB)",,47.503064,-122.172857,24,0
46620,46620,"NE 12th St & Redmond Ave NE (EB)",,47.50301,-122.168936,24,0
45120,45120,"NE 12th St & Redmond Ave NE (WB)",,47.50301,-122.16894,24,0
46630,46630,"NE 12th St & NE 11th Pl (EB)",,47.502977,-122.165849,24,0
45110,45110,"NE 12th St & NE 11th Pl (WB)",,47.502982,-122.166377,24,0
73030,73030,"NE 12th St & 84th Ave NE (EB)",,47.621033,-122.227161,19,0
72960,72960,"NE 12th St & 84th Ave NE (WB)",,47.62103,-122.227507,19,0
40880,40880,"13th Ave S & S Bailey St (NB)",,47.548268,-122.316098,21,0
41740,41740,"13th Ave S & S Bailey St (SB)",,47.547736,-122.316117,21,0
41247,41247,"S 144th St & 53rd Ave S (EB)",,47.474039,-122.268213,24,0
14410,14410,"14th Ave NW & NW 100th St (NB)",,47.701781,-122.374109,21,0
14420,14420,"14th Ave NW & NW 103rd St (NB)",,47.703302,-122.374099,21,0
13542,13542,"14th Ave NW & NW 100th St (SB)",,47.70163,-122.374107,21,0
3740,3740,"14th Ave S & S Judkins St (SB)",,47.591183,-122.314855,21,0
3760,3760,"14th Ave S & S Massachusetts St (SB)",,47.588185,-122.314874,21,0
3515,3515,"14th Ave S & S Holgate St (NB)",,47.586599,-122.314683,21,0
3770,3770,"14th Ave S & S Holgate St (SB)",,47.586133,-122.314686,21,0
3500,3500,"14th Ave S & S Hill St (NB)",,47.584505,-122.314699,21,0
49739,49739,"14th Ave S & S Trenton St (SB)",,47.524513,-122.314959,3,0
49720,49720,"14th Ave S & S Trenton St (NB)",,47.524603,-122.314958,3,0
49740,49740,"14th Ave S & S Henderson St (SB)",,47.5228,-122.314986,3,0
49710,49710,"14th Ave S & S Director St (NB)",,47.522567,-122.314989,3,0
66880,66880,"SE 14th St & 165th Ave SE (EB)",,47.598133,-122.119824,19,0
67150,67150,"SE 14th St & 165th Ave SE (WB)",,47.598135,-122.119905,19,0
66890,66890,"SE 14th St & 168th Ave SE (EB)",,47.598086,-122.116772,19,0
67140,67140,"SE 14th St & 167th Ave SE (WB)",,47.59807,-122.1167,19,0
11430,11430,"15th Ave E & E Republican St (SB)",,47.622888,-122.312647,21,0
11420,11420,"15th Ave E & E Mercer St (SB)",,47.623968,-122.312624,21,0
11410,11410,"15th Ave E & E Roy St (SB)",,47.625023,-122.31261,21,0
11590,11590,"15th Ave E & E Roy St (NB)",,47.625423,-122.312605,21,0
11400,11400,"15th Ave E & E Aloha St (SB)",,47.626675,-122.312585,21,0
11600,11600,"15th Ave E & E Aloha St (NB)",,47.627092,-122.312583,21,0
11390,11390,"15th Ave E & E Prospect St (SB)",,47.628473,-122.312573,21,0
11610,11610,"15th Ave E & E Prospect St (NB)",,47.628898,-122.312568,21,0
11370,11370,"15th Ave E & E Galer St (SB)",,47.632493,-122.312508,21,0
10917,10917,"15th Ave NE & NE 40th St (SB)",,47.654812,-122.312113,21,0
29440,29440,"15th Ave NE & NE Campus Pkwy (NB)",,47.655703,-122.312093,21,0
10914,10914,"15th Ave NE & NE Campus Pkwy (SB)",,47.656424,-122.312079,21,0
11352,11352,"15th Ave NE & NE 42nd St (NB)",,47.658663,-122.312025,21,0
10912,10912,"15th Ave NE & NE 43rd St (SB)",,47.659364,-122.312008,21,0
36860,36860,"15th Ave NE & NE 45th St (NB)",,47.661737,-122.312009,21,0
35820,35820,"15th Ave NE & NE 45th St (SB)",,47.661342,-122.311982,21,0
35790,35790,"15th Ave NE & NE 52nd St (SB)",,47.6663,-122.311933,21,0
38390,38390,"15th Ave NE & NE 65th St (NB)",,47.676082,-122.31195,21,0
38370,38370,"15th Ave NE & NE 70th St (SB)",,47.679157,-122.312016,21,0
38410,38410,"15th Ave NE & NE 70th St (NB)",,47.679617,-122.312022,21,0
38350,38350,"15th Ave NE & NE 75th St (SB)",,47.682604,-122.311909,21,0
38930,38930,"15th Ave NE & NE 120th St (SB)",,47.715471,-122.312559,21,0
39230,39230,"15th Ave NE & NE 120th St (NB)",,47.716005,-122.312576,21,0
39240,39240,"15th Ave NE & NE 123rd St (NB)",,47.717844,-122.312641,21,0
38910,38910,"15th Ave NE & NE 125th St (SB)",,47.718998,-122.312679,21,0
38900,38900,"15th Ave NE & NE 127th St (SB)",,47.720965,-122.312686,21,0
39260,39260,"15th Ave NE & NE 127th St (NB)",,47.721494,-122.312683,21,0
38890,38890,"15th Ave NE & NE 130th St (SB)",,47.722892,-122.312681,21,0
39290,39290,"15th Ave NE & NE 135th St (NB)",,47.726876,-122.312669,21,0
38870,38870,"15th Ave NE & NE 135th St (SB)",,47.726862,-122.312665,21,0
39310,39310,"15th Ave NE & NE 140th St (NB)",,47.730186,-122.312711,21,0
38850,38850,"15th Ave NE & NE 140th St (SB)",,47.730049,-122.312708,21,0
39320,39320,"15th Ave NE & NE 143rd St (NB)",,47.732014,-122.312735,21,0
38840,38840,"15th Ave NE & NE 143rd St (SB)",,47.731847,-122.312734,21,0
77650,77650,"15th Ave NE & NE 150th St (SB)",,47.737336,-122.312853,18,0
77720,77720,"15th Ave NE & NE 150th St (NB)",,47.737919,-122.312869,18,0
77630,77630,"15th Ave NE & NE 155th St (SB)",,47.740701,-122.312939,18,0
77520,77520,"15th Ave NE & NE 165th St (SB)",,47.748278,-122.313152,18,0
77860,77860,"15th Ave NE & NE 165th St (NB)",,47.748716,-122.313171,18,0
77510,77510,"15th Ave NE & NE 168th St (SB)",,47.749977,-122.313228,18,0
77500,77500,"15th Ave NE & NE 170th St (SB)",,47.751796,-122.313314,18,0
77880,77880,"15th Ave NE & NE 170th St (NB)",,47.752635,-122.313352,18,0
77882,77882,"15th Ave NE & NE 172nd St (NB)",,47.754125,-122.313418,18,0
77490,77490,"15th Ave NE & NE 172nd St (SB)",,47.754166,-122.313421,18,0
77890,77890,"15th Ave NE & NE 175th St (NB)",,47.756452,-122.313489,18,0
77470,77470,"15th Ave NE & NE 177th St (SB)",,47.758058,-122.31348,18,0
77900,77900,"15th Ave NE & NE 177th St (NB)",,47.758038,-122.313484,18,0
77920,77920,"15th Ave NE & 24th Ave NE (NB)",,47.76268,-122.312648,18,0
77450,77450,"15th Ave NE & 24th Ave NE (SB)",,47.762708,-122.312668,18,0
77930,77930,"15th Ave NE & NE Perkins Way (NB)",,47.765574,-122.31389,18,0
77440,77440,"15th Ave NE & NE Perkins Way (SB)",,47.765656,-122.313909,18,0
77940,77940,"15th Ave NE & NE 192nd St (SB)",,47.768715,-122.314542,18,0
77950,77950,"15th Ave NE & NE 196th St (NB)",,47.770973,-122.313468,18,0
77418,77418,"15th Ave NE & NE 200th Ct (SB)",,47.772151,-122.313522,18,0
77410,77410,"15th Ave NE & Forest Park Dr NE (SB)",,47.774795,-122.313638,18,0
77960,77960,"15th Ave NE & Forest Park Dr NE (NB)",,47.774809,-122.313638,18,0
77970,77970,"15th Ave NE & Ballinger Way NE (NB)",,47.776426,-122.313714,18,0
77400,77400,"15th Ave NE & Ballinger Way NE (SB)",,47.776809,-122.313734,18,0
39270,39270,"15th Ave NE & NE 130th St (NB)",,47.723029,-122.312675,21,0
14230,14230,"15th Ave NW & NW Market St (NB)",,47.66847,-122.37623,21,0
13660,13660,"15th Ave NW & NW 70th St (SB)",,47.678839,-122.376782,21,0
14300,14300,"15th Ave NW & NW 70th St (NB)",,47.679872,-122.376786,21,0
13640,13640,"15th Ave NW & NW 75th St (SB)",,47.682988,-122.376793,21,0
14320,14320,"15th Ave NW & NW 75th St (NB)",,47.683424,-122.376796,21,0
13620,13620,"15th Ave NW & NW 80th St (SB)",,47.686054,-122.376805,21,0
14340,14340,"15th Ave NW & NW 80th St (NB)",,47.687134,-122.376809,21,0
13600,13600,"15th Ave NW & NW 85th St (SB)",,47.690151,-122.376817,21,0
14360,14360,"15th Ave NW & NW 85th St (NB)",,47.69117,-122.376817,21,0
14370,14370,"15th Ave NW & NW 90th St (NB)",,47.693733,-122.376819,21,0
14380,14380,"15th Ave NW & NW 92nd St (NB)",,47.696286,-122.376809,21,0
13570,13570,"15th Ave NW & NW 92nd St (SB)",,47.695642,-122.376809,21,0
14390,14390,"15th Ave NW & NW 96th St (NB)",,47.698824,-122.376807,21,0
13560,13560,"15th Ave NW & NW 96th St (SB)",,47.698723,-122.376809,21,0
14400,14400,"15th Ave NW & NW 100th St (NB)",,47.701397,-122.376785,21,0
13550,13550,"15th Ave NW & NW 100th St (SB)",,47.701246,-122.376787,21,0
41880,41880,"15th Ave S & S Stevens St (NB)",,47.577082,-122.313378,21,0
42048,42048,"15th Ave S & S Stevens St (SB)",,47.576671,-122.313384,21,0
41870,41870,"15th Ave S & S Hanford St (NB)",,47.575279,-122.313394,21,0
42050,42050,"15th Ave S & S Hanford St (SB)",,47.574898,-122.313395,21,0
41850,41850,"15th Ave S & S Spokane St (NB)",,47.571818,-122.313419,21,0
42070,42070,"15th Ave S & S Spokane St (SB)",,47.571434,-122.313424,21,0
30790,30790,"15th Ave S & S Dakota St (SB)",,47.566992,-122.313482,21,0
30800,30800,"15th Ave S & S Nevada St (SB)",,47.565063,-122.313507,21,0
42080,42080,"15th Ave S & S Oregon St (SB)",,47.563093,-122.313533,21,0
41830,41830,"15th Ave S & S Oregon St (NB)",,47.563361,-122.31353,21,0
42120,42120,"15th Ave S & S Dawson St (SB)",,47.555412,-122.313471,21,0
41780,41780,"15th Ave S & S Lucile St (NB)",,47.553699,-122.313486,21,0
42130,42130,"15th Ave S & S Lucile St (SB)",,47.553165,-122.313489,21,0
42140,42140,"15th Ave S & S Orcas St (SB)",,47.551381,-122.313508,21,0
52030,52030,"15th Ave SW & SW Roxbury St - Bay 1 (SB)",,47.516938,-122.354042,6,0
39431,39431,"15th Ave SW & SW Roxbury St - Bay 2 (NB)",,47.516892,-122.354038,6,0
51640,51640,"15th Ave SW & SW 104th St (NB)",,47.510337,-122.353819,24,0
52070,52070,"15th Ave SW & SW 104th St (SB)",,47.509816,-122.353777,24,0
52080,52080,"15th Ave SW & SW 106th St (SB)",,47.508378,-122.35377,24,0
14110,14110,"15th Ave W & W Newton St (NB)",,47.636962,-122.376204,21,0
13840,13840,"15th Ave W & W Armory Way (SB)",,47.637477,-122.376206,21,0
13830,13830,"15th Ave W & W Wheeler St (SB)",,47.640316,-122.376225,21,0
14130,14130,"15th Ave W & W Wheeler St (NB)",,47.640919,-122.376225,21,0
14150,14150,"15th Ave W & W Armour St (NB)",,47.644928,-122.376239,21,0
13810,13810,"15th Ave W & W Armour St (SB)",,47.644819,-122.376236,21,0
13770,13770,"15th Ave W & W Emerson St (SB)",,47.653467,-122.376238,21,0
14190,14190,"15th Ave W & W Emerson St (NB)",,47.653936,-122.376229,21,0
36120,36120,"16th Ave SW & SW Brandon St (SB)",,47.554656,-122.354791,21,0
36540,36540,"16th Ave SW & SW Brandon St (NB)",,47.553935,-122.354788,21,0
36140,36140,"16th Ave SW & SW Findlay St (SB)",,47.551893,-122.354793,21,0
36145,36145,"SSC North Entrance (SB)",,47.548704,-122.354852,21,0
36530,36530,"16th Ave SW & SW Findlay St (NB)",,47.551874,-122.354793,21,0
36155,36155,"SSC North Entrance (NB)",,47.549106,-122.354754,21,0
36520,36520,"16th Ave SW & SW Morgan St (NB)",,47.544958,-122.354805,21,0
36510,36510,"16th Ave SW & SW Holly St (NB)",,47.543018,-122.35493,21,0
36170,36170,"16th Ave SW & SW Holly St (SB)",,47.542815,-122.354933,21,0
36180,36180,"16th Ave SW & SW Myrtle St (SB)",,47.538828,-122.355006,21,0
36500,36500,"16th Ave SW & SW Orchard St (NB)",,47.5384,-122.355012,21,0
36490,36490,"16th Ave SW & SW Webster St (NB)",,47.535723,-122.355032,21,0
36190,36190,"16th Ave SW & SW Webster St (SB)",,47.535257,-122.355034,21,0
22190,22190,"16th Ave SW & SW Holden St (SB)",,47.533432,-122.355048,21,0
21410,21410,"16th Ave SW & SW Holden St (NB)",,47.533514,-122.355047,21,0
21400,21400,"16th Ave SW & SW Kenyon St (NB)",,47.532111,-122.35506,21,0
22200,22200,"16th Ave SW & SW Kenyon St (SB)",,47.531632,-122.355062,21,0
21390,21390,"16th Ave SW & SW Elmgrove St (NB)",,47.530267,-122.355067,21,0
22210,22210,"16th Ave SW & SW Elmgrove St (SB)",,47.529837,-122.355068,21,0
21380,21380,"16th Ave SW & SW Thistle St (NB)",,47.528516,-122.355076,21,0
22220,22220,"16th Ave SW & SW Thistle St (SB)",,47.528045,-122.355078,21,0
21370,21370,"16th Ave SW & SW Cloverdale St (NB)",,47.52676,-122.355086,21,0
22230,22230,"16th Ave SW & SW Cloverdale St (SB)",,47.526247,-122.355088,21,0
21360,21360,"16th Ave SW & SW Trenton St (NB)",,47.524959,-122.355096,21,0
21292,21292,"16th Ave SW & SW Roxbury St - Bay 5 (NB)",,47.517843,-122.355171,21,0
52100,52100,"16th Ave SW & SW 107th St (SB)",,47.506517,-122.355124,24,0
51610,51610,"16th Ave SW & SW 110th St (NB)",,47.505065,-122.355141,24,0
51600,51600,"16th Ave SW & SW 112th St (NB)",,47.50321,-122.355152,24,0
52120,52120,"16th Ave SW & SW 112th St (SB)",,47.502251,-122.355168,24,0
52140,52140,"16th Ave SW & SW 116th St (SB)",,47.499297,-122.355135,24,0
51580,51580,"Ambaum Blvd SW & SW 116th St (NB)",,47.498222,-122.354074,24,0
50468,50468,"16th Ave S & 17th Pl S (SB)",,47.390743,-122.311802,24,0
48972,48972,"16th Ave S & 17th Pl S (NB)",,47.390787,-122.311806,24,0
54841,54841,"NE 16th St & Edmonds Ave NE (EB)",,47.506638,-122.183855,24,0
56649,56649,"NE 16th St & Edmonds Ave NE (WB)",,47.506462,-122.184369,24,0
80982,80982,"17th St SE & B St SE (WB)",,47.293612,-122.226965,24,0
80978,80978,"17th St SE & G St SE (WB)",,47.293675,-122.21934,24,0
74318,74318,"18th Ave & Market St (EB)",,47.68966,-122.209487,19,0
74320,74320,"18th Ave & 3rd St (EB)",,47.689641,-122.20514,19,0
74650,74650,"18th Ave & 3rd St (WB)",,47.689644,-122.205181,19,0
13270,13270,"19th Ave & E Denny Way (SB)",,47.618257,-122.307402,21,0
13310,13310,"19th Ave E & E Denny Way (NB)",,47.618693,-122.307393,21,0
13260,13260,"19th Ave E & E John St (SB)",,47.619452,-122.307382,21,0
13320,13320,"19th Ave E & E John St (NB)",,47.619866,-122.307373,21,0
13330,13330,"19th Ave E & E Thomas St (NB)",,47.620677,-122.307358,21,0
13250,13250,"19th Ave E & E Harrison St (SB)",,47.621896,-122.307342,21,0
13350,13350,"19th Ave E & E Republican St (NB)",,47.623401,-122.307314,21,0
13240,13240,"19th Ave E & E Mercer St (SB)",,47.624193,-122.307299,21,0
13360,13360,"19th Ave E & E Roy St (NB)",,47.62547,-122.307327,21,0
13230,13230,"19th Ave E & E Aloha St (SB)",,47.626642,-122.307316,21,0
13370,13370,"19th Ave E & E Aloha St (NB)",,47.62704,-122.30731,21,0
13220,13220,"19th Ave E & E Prospect St (SB)",,47.628487,-122.307287,21,0
13380,13380,"19th Ave E & E Prospect St (NB)",,47.628857,-122.307282,21,0
13210,13210,"19th Ave E & E Highland Dr (SB)",,47.630432,-122.307261,21,0
13381,13381,"19th Ave E & E Highland Dr (NB)",,47.630805,-122.307256,21,0
13200,13200,"19th Ave E & E Galer St (SB)",,47.63189,-122.307246,21,0
10400,10400,"20th Ave NE & NE 50th St (NB)",,47.665023,-122.306518,21,0
10120,10120,"20th Ave NE & NE 52nd St (SB)",,47.666278,-122.306513,21,0
10410,10410,"20th Ave NE & NE 52nd St (NB)",,47.666637,-122.306512,21,0
10420,10420,"20th Ave NE & NE 54th St (NB)",,47.668166,-122.306496,21,0
10110,10110,"20th Ave NE & NE 55th St (SB)",,47.66827,-122.306495,21,0
74472,74472,"NE 20th St & 130th Ave NE (EB)",,47.628059,-122.166335,19,0
74544,74544,"NE 20th St & 132nd Ave NE (WB)",,47.628035,-122.164307,19,0
36090,36090,"21st Ave SW & 22nd Ave SW (SB)",,47.559136,-122.360202,21,0
36580,36580,"21st Ave SW & 22nd Ave SW (NB)",,47.558193,-122.360177,21,0
36100,36100,"21st Ave SW & SW Dawson St (SB)",,47.557442,-122.360153,21,0
40018,40018,"22nd Ave SW & 23rd Ave SW (SB)",,47.560744,-122.361299,21,0
40016,40016,"22nd Ave SW & 23rd Ave SW (NB)",,47.561136,-122.361595,21,0
31400,31400,"22nd Ave W & Thorndyke Ave W (NB)",,47.643399,-122.384648,21,0
31290,31290,"22nd Ave W & Thorndyke Ave W (SB)",,47.643059,-122.384623,21,0
31280,31280,"22nd Ave W & W Armour St (SB)",,47.644536,-122.384659,21,0
31410,31410,"22nd Ave W & W Armour St (NB)",,47.645052,-122.384665,21,0
31270,31270,"22nd Ave W & W Barrett St (SB)",,47.646345,-122.384666,21,0
31420,31420,"22nd Ave W & W Barrett St (NB)",,47.646797,-122.384673,21,0
31260,31260,"22nd Ave W & W Dravus St (SB)",,47.648258,-122.384676,21,0
31430,31430,"22nd Ave W & W Dravus St (NB)",,47.64871,-122.384679,21,0
31250,31250,"22nd Ave W & W Bertona St (SB)",,47.650129,-122.384682,21,0
31440,31440,"22nd Ave W & W Bertona St (NB)",,47.650513,-122.384686,21,0
31450,31450,"22nd Ave W & W Ruffner St (NB)",,47.652091,-122.384692,21,0
31460,31460,"22nd Ave W & Gilman Ave W (NB)",,47.653319,-122.384681,21,0
31230,31230,"22nd Ave W & Gilman Ave W (SB)",,47.653675,-122.384665,21,0
12600,12600,"23rd Ave & E Jefferson St (SB)",,47.605899,-122.302795,21,0
35860,35860,"23rd Ave & E Union St (SB)",,47.612462,-122.302735,21,0
35850,35850,"23rd Ave & E Pine St (SB)",,47.615114,-122.302668,21,0
12770,12770,"23rd Ave & E Cherry St (SB)",,47.607707,-122.302787,21,0
35821,35821,"23rd Ave E & E John St (SB)",,47.619923,-122.302522,21,0
29257,29257,"23rd Ave E & E Thomas St (SB)",,47.621167,-122.302497,21,0
29256,29256,"23rd Ave E & E Republican St (SB)",,47.622929,-122.30247,21,0
29278,29278,"23rd Ave E & E Republican St (NB)",,47.623373,-122.302464,21,0
29255,29255,"23rd Ave E & E Roy St (SB)",,47.624976,-122.302434,21,0
29279,29279,"23rd Ave E & E Roy St (NB)",,47.625333,-122.30243,21,0
29254,29254,"23rd Ave E & E Aloha St (SB)",,47.626574,-122.302401,21,0
29280,29280,"23rd Ave E & E Aloha St (NB)",,47.627007,-122.302399,21,0
12550,12550,"23rd Ave S & S Jackson St (NB)",,47.599689,-122.302231,21,0
12640,12640,"23rd Ave S & S Jackson St (SB)",,47.598974,-122.302228,21,0
35890,35890,"23rd Ave S & S Dearborn St (SB)",,47.595318,-122.302241,21,0
35910,35910,"23rd Ave S & S Judkins St (SB)",,47.591635,-122.30242,21,0
35940,35940,"23rd Ave S & S Massachusetts St (SB)",,47.588046,-122.302614,21,0
70520,70520,"NE 23rd St & 98th Ave NE (WB)",,47.631076,-122.20915,19,0
29253,29253,"24th Ave E & E Prospect St (SB)",,47.629037,-122.301681,21,0
29300,29300,"24th Ave E & E Prospect St (NB)",,47.629465,-122.301679,21,0
29251,29251,"24th Ave E & E Galer St (SB)",,47.632161,-122.301627,21,0
29340,29340,"24th Ave E & Boyer Ave E (NB)",,47.63505,-122.301584,21,0
29249,29249,"24th Ave E & Boyer Ave E (SB)",,47.634992,-122.301581,21,0
29248,29248,"24th Ave E & E Newton St (SB)",,47.637688,-122.301533,21,0
29350,29350,"24th Ave E & E Newton St (NB)",,47.638086,-122.301588,21,0
19510,19510,"24th Ave NW & NW 57th St (NB)",,47.670292,-122.387602,21,0
19360,19360,"24th Ave NW & NW 57th St (SB)",,47.669963,-122.387602,21,0
19340,19340,"24th Ave NW & NW 61st St (SB)",,47.672895,-122.3876,21,0
19530,19530,"24th Ave NW & NW 61st St (NB)",,47.673361,-122.387599,21,0
19320,19320,"24th Ave NW & NW 65th St (SB)",,47.675548,-122.387602,21,0
19550,19550,"24th Ave NW & NW 65th St (NB)",,47.676137,-122.38755,21,0
19300,19300,"24th Ave NW & NW 70th St (SB)",,47.679198,-122.387555,21,0
19570,19570,"24th Ave NW & NW 70th St (NB)",,47.679727,-122.387557,21,0
19280,19280,"24th Ave NW & NW 75th St (SB)",,47.682988,-122.387571,21,0
19590,19590,"24th Ave NW & NW 75th St (NB)",,47.683366,-122.387575,21,0
19270,19270,"24th Ave NW & NW 77th St (SB)",,47.684728,-122.387596,21,0
19600,19600,"24th Ave NW & NW 77th St (NB)",,47.685147,-122.387599,21,0
19260,19260,"24th Ave NW & NW 80th St (SB)",,47.686564,-122.387607,21,0
19610,19610,"24th Ave NW & NW 80th St (NB)",,47.687002,-122.387606,21,0
19620,19620,"24th Ave NW & NW 83rd St (NB)",,47.688603,-122.387615,21,0
19250,19250,"24th Ave NW & NW 83rd St (SB)",,47.688433,-122.387613,21,0
19240,19240,"24th Ave NW & NW 85th St (SB)",,47.690326,-122.387611,21,0
19630,19630,"24th Ave NW & NW 85th St (NB)",,47.690918,-122.3876,21,0
19080,19080,"24th Ave NW & NW 87th St (NB)",,47.692376,-122.387587,21,0
19090,19090,"24th Ave NW & NW 90th St (NB)",,47.694757,-122.387584,21,0
19110,19110,"24th Ave NW & NW 95th St (NB)",,47.698314,-122.387575,21,0
19120,19120,"24th Ave NW & NW 96th St (NB)",,47.699024,-122.387578,21,0
12670,12670,"24th Ave S & S Norman St (SB)",,47.592732,-122.301198,21,0
50450,50450,"24th Ave S & S 226th St (SB)",,47.398923,-122.302404,24,0
48990,48990,"24th Ave S & S 226th St (NB)",,47.399334,-122.302488,24,0
48980,48980,"24th Ave S & S 230th St (NB)",,47.396303,-122.300678,24,0
64287,64287,"SE Fall City-Snoqualmie Rd & 356th Ave SE (EB)",,47.562408,-121.865173,40,0
64275,64275,"SE Fall City-Snoqualmie Rd & 356th Dr SE (WB)",,47.562476,-121.865334,40,0
64288,64288,"SE Fall City-Snoqualmie Rd & 361st Ave SE (EB)",,47.560284,-121.857289,40,0
64366,64366,"SR 203 & NE 40th St (SB)",,47.64438,-121.915557,40,0
64364,64364,"SR 203 & NE 40th St (NB)",,47.644282,-121.915539,40,0
78045,78045,"SR 203 & W Bird St (NB)",,47.648704,-121.913726,40,0
64384,64384,"NE Big Rock Rd & 279th Ln NE (EB)",,47.724533,-121.965273,40,0
64386,64386,"NE Big Rock Rd & 279th Ln NE (WB)",,47.724536,-121.96544,40,0
64382,64382,"Kelly Rd NE & NE Big Rock Rd (SB)",,47.692431,-121.901877,40,0
64378,64378,"NE Big Rock Rd & NE 109th St (NB)",,47.69513,-121.901169,40,0
32426,32426,"Alki Ave SW & 1700 Block (NB)",,47.588027,-122.395862,21,0
32425,32425,"Alki Ave SW & Bonair Dr SW (NB)",,47.586108,-122.398066,21,0
84028,84028,"NE Woodinville Duvall Rd & 212th Ave NE (WB)",,47.75401,-122.053354,40,0
77057,77057,"NE Woodinville Duvall Rd & Mink Rd NE (EB)",,47.754909,-122.061363,40,0
84068,84068,"NE Woodinville Duvall Rd & Mink Rd NE (WB)",,47.754912,-122.06228,40,0
77071,77071,"NE Woodinville Duvall Rd & 197th Ave NE (EB)",,47.753821,-122.074756,40,0
84031,84031,"NE Woodinville Duvall Rd & 198th Ave NE (WB)",,47.754172,-122.075834,40,0
71835,71835,"Avondale Rd NE & NE 172nd St (NB)",,47.752322,-122.081136,40,0
77063,77063,"Avondale Rd NE & NE 173rd St (SB)",,47.751607,-122.081267,40,0
77065,77065,"Avondale Rd NE & NE 165th St (SB)",,47.747329,-122.081962,40,0
71832,71832,"Avondale Rd NE & NE 159th St (NB)",,47.743301,-122.081096,40,0
77066,77066,"Avondale Rd NE & NE 159th St (SB)",,47.742718,-122.080964,40,0
71831,71831,"Avondale Rd NE & NE 155th St (NB)",,47.740205,-122.080389,40,0
77067,77067,"Avondale Rd NE & NE 155th St (SB)",,47.740018,-122.080347,40,0
45870,45870,"4th Ave S & S Spokane St (SB)",,47.571018,-122.329046,21,0
45880,45880,"4th Ave S & Diagonal Ave S (SB)",,47.567927,-122.329175,21,0
45850,45850,"4th Ave S & S Industrial Way (NB)",,47.568338,-122.329076,21,0
42351,42351,"SW 356th St & 18th Ave SW (EB)",,47.282623,-122.357017,24,0
21940,21940,"Airport Way S & S Spokane St (SB)",,47.571588,-122.322768,21,0
99400,99400,"SR 169 & SE 216th Pl (SB)",,47.407804,-122.038117,40,0
62328,62328,"192nd Ave SE & SE 267th St (SB)",,47.362028,-122.085245,40,0
72879,72879,"Somerset Blvd SE & Highland Dr (EB)",,47.560531,-122.149673,19,0
72882,72882,"Somerset Blvd SE & 143rd Ave SE (EB)",,47.562246,-122.151716,19,0
68397,68397,"159th Ave NE & NE 39th St (NB)",,47.644742,-122.127088,19,0
72889,72889,"Somerset Blvd SE & Somerset Ln (EB)",,47.562476,-122.156541,19,0
72887,72887,"Somerset Blvd SE & SE 43rd St (SB)",,47.569036,-122.159729,19,0
74003,74003,"Willows Rd NE & NE 116th St (SB)",,47.703795,-122.153141,19,0
64140,64140,"N Mercer Way & 80th Ave SE - Bay 1 (WB)",,47.58866,-122.232759,19,0
73757,73757,"NE 85th St & 161st Ave NE (EB)",,47.678529,-122.126795,19,0
57892,57892,"Auburn P&R - Bay 1 (EB)",,47.321108,-122.228035,24,0
79880,79880,"Factoria Blvd SE & SE 40th Ln (SB)",,47.573413,-122.169464,19,0
80400,80400,"Factoria Blvd SE & SE 40th Ln (NB)",,47.573476,-122.169463,19,0
72983,72983,"Kelsey Creek Rd & Tye River Rd (SB)",,47.585744,-122.148284,19,0
1120,1120,"Pine St & 4th Ave (WB)",,47.611042,-122.337987,21,0
1180,1180,"Pike St & 4th Ave (EB)",,47.610182,-122.336742,21,0
1230,1230,"Union St & 4th Ave (WB)",,47.609023,-122.336257,21,0
1250,1250,"Seneca St & 4th Ave (WB)",,47.607367,-122.334575,21,0
1560,1560,"James St & 3rd Ave (EB)",,47.602988,-122.330892,21,0
1340,1340,"Yesler Way & Prefontaine Pl S (EB)",,47.601711,-122.329876,21,0
71836,71836,"Avondale Rd NE & NE 146th Way (NB)",,47.732962,-122.081861,40,0
71838,71838,"Avondale Rd NE & NE 140th Pl (NB)",,47.726599,-122.084405,19,0
71825,71825,"Avondale Rd NE & NE 140th Pl (SB)",,47.726531,-122.084431,19,0
77055,77055,"Avondale Rd NE & NE 146th Way (SB)",,47.733776,-122.081529,40,0
71841,71841,"Avondale Rd NE & NE 143rd St (NB)",,47.729271,-122.08336,19,0
77068,77068,"Avondale Rd NE & NE 143rd St (SB)",,47.729066,-122.083441,19,0
26760,26760,"Westlake Ave N & Highland Dr (NB)",,47.629942,-122.340997,21,0
26600,26600,"Westlake Ave N & Highland Dr (SB)",,47.629791,-122.341003,21,0
60660,60660,"Pacific Hwy S & S 316th St (NB)",,47.319329,-122.313303,24,0
61420,61420,"SW 320th St & 47th Ave SW (WB)",,47.315202,-122.391426,24,0
61426,61426,"Hoyt Rd SW & SW 329th Way (SB)",,47.307615,-122.389254,24,0
61435,61435,"Hoyt Rd SW & SW 338th St (SB)",,47.299153,-122.384948,24,0
83787,83787,"SW 320th St & 13th Ave SW (WB)",,47.315167,-122.352095,24,0
83702,83702,"SW 320th St & 13th Ave SW (EB)",,47.31517,-122.351694,24,0
81775,81775,"228th Ave NE & NE 25th Way (NB)",,47.631915,-122.03546,19,0
81861,81861,"228th Ave NE & NE 22nd St (NB)",,47.629322,-122.035471,19,0
81820,81820,"228th Ave NE & NE 25th Way (SB)",,47.631389,-122.035457,40,0
81871,81871,"228th Ave NE & 18th Pl NE (NB)",,47.625429,-122.035482,19,0
81870,81870,"228th Ave NE & 18th Pl NE (SB)",,47.625535,-122.03548,19,0
81825,81825,"228th Ave NE & NE 22nd St (SB)",,47.629621,-122.035469,19,0
64416,64416,"I-90 & 270th Ave SE (EB)",,47.530941,-121.979286,40,0
64470,64470,"I-90 & 270th Ave SE (WB)",,47.531703,-121.98061,40,0
81716,81716,"228th Ave SE & SE 24th St (NB)",,47.588725,-122.03548,19,0
81847,81847,"Issaquah Pine Lake Rd SE & SE 37th Pl (SB)",,47.574676,-122.022135,19,0
81741,81741,"Issaquah Pine Lake Rd SE & SE Klahanie Blvd (NB)",,47.567823,-122.024724,19,0
81735,81735,"Issaquah Pine Lake Rd SE & SE 40th Pl (SB)",,47.572004,-122.022405,19,0
81743,81743,"Issaquah Pine Lake Rd SE & SE 47th Way (SB)",,47.561599,-122.025051,19,0
81745,81745,"Issaquah Pine Lake Rd SE & SE 47th Way (NB)",,47.561668,-122.025042,19,0
81840,81840,"Sahalee Way NE & NE 28th Pl (EB)",,47.636091,-122.04243,19,0
81842,81842,"Sahalee Way NE & 223rd Ave NE (WB)",,47.636085,-122.042414,19,0
81800,81800,"Sahalee Way NE & NE 36th St (SB)",,47.641969,-122.055199,19,0
81845,81845,"Sahalee Way NE & NE 37th Way (SB)",,47.644369,-122.056599,19,0
62142,62142,"SE 272nd St & 156th Ave SE (WB)",,47.357989,-122.131681,24,0
60490,60490,"SE 272nd St & 150th Pl SE (EB)",,47.358008,-122.140956,24,0
60491,60491,"SE 272nd St & 137th Ave SE (EB)",,47.357981,-122.158525,24,0
62159,62159,"SE 272nd St & 144th Ave SE (WB)",,47.358005,-122.149589,24,0
60480,60480,"SE Kent Kangley Rd & 132nd Ave SE (EB)",,47.358112,-122.166346,24,0
60459,60459,"SE Kent Kangley Rd & 132nd Ave SE (WB)",,47.358063,-122.16595,24,0
57122,57122,"SE 240th St & 111th Pl SE (EB)",,47.386937,-122.194287,24,0
57437,57437,"SE 240th St & 111th Pl SE (WB)",,47.38694,-122.193951,24,0
62178,62178,"SE 256th St & 127th Ave SE (WB)",,47.37243,-122.171748,24,0
57152,57152,"132nd Ave SE & SE 248th St (SB)",,47.378864,-122.165415,24,0
61450,61450,"SW 342nd St & 38th Pl SW (EB)",,47.295423,-122.380231,24,0
42380,42380,"21st Ave SW & SW 336th St (NB)",,47.301402,-122.360915,24,0
61430,61430,"Hoyt Rd SW & SW 331st Pl (SB)",,47.30443,-122.387816,24,0
83704,83704,"SW 320th St & 18th Ave SW (EB)",,47.315161,-122.357159,24,0
42420,42420,"21st Ave SW & SW 325th Pl (NB)",,47.310333,-122.360948,24,0
83703,83703,"SW 320th St & 21st Ave SW (EB)",,47.31517,-122.360631,24,0
80767,80767,"Lind Ave SW & SW 21st St (NB)",,47.46093,-122.22341,24,0
80763,80763,"Lind Ave SW & SW 39th St (SB)",,47.445952,-122.2237,24,0
80765,80765,"Lind Ave SW & SW 39th St (NB)",,47.445954,-122.2237,24,0
80769,80769,"Lind Ave SW & SW 29th St (SB)",,47.451882,-122.223548,24,0
80669,80669,"Lind Ave SW & SW 34th St (SB)",,47.448991,-122.223619,24,0
80665,80665,"Lind Ave SW & SW 29th St (NB)",,47.452046,-122.223541,24,0
80667,80667,"Lind Ave SW & SW 34th St (NB)",,47.449909,-122.223593,24,0
80666,80666,"Lind Ave SW & SW 41st St (NB)",,47.444129,-122.223954,24,0
65049,65049,"NW Sammamish Rd & 15th Pl NW (EB)",,47.551973,-122.060826,19,0
64583,64583,"NW Sammamish Rd & 17th Ave NW (WB)",,47.55197,-122.061049,19,0
83707,83707,"S 320th St & 3rd Ave S (EB)",,47.315161,-122.330066,24,0
83783,83783,"S 320th St & 4th Ave S (WB)",,47.315164,-122.329149,24,0
62096,62096,"SE 272nd St & 201st Ave SE (WB)",,47.358068,-122.074541,40,0
62320,62320,"SE Timberlane Blvd & Timberlane Way SE (EB)",,47.367413,-122.093862,40,0
62112,62112,"SE Timberlane Blvd & Timberlane Way SE (WB)",,47.367259,-122.094197,40,0
74002,74002,"NE 124th St & 134th Ct NE (EB)",,47.711462,-122.163096,19,0
74004,74004,"NE 124th St & 134th Ct NE (WB)",,47.711459,-122.162778,19,0
74034,74034,"NE 109th St & 159th Ave NE (WB)",,47.697336,-122.127962,19,0
73945,73945,"NE Redmond Way & 145th Ave NE (EB)",,47.674956,-122.146528,19,0
73108,73108,"148th Ave NE & NE 87th St (SB)",,47.680727,-122.145147,19,0
72015,72015,"NE Old Redmond Rd & 148th Ave NE (WB)",,47.667538,-122.143781,19,0
73282,73282,"148th Ave NE & NE 32nd St (SB)",,47.638587,-122.143092,19,0
73310,73310,"148th Ave NE & NE 31st St (NB)",,47.639426,-122.142932,19,0
73248,73248,"148th Ave NE & NE 40th St (SB)",,47.645361,-122.143062,19,0
73340,73340,"148th Ave NE & NE 37th Pl (NB)",,47.643744,-122.142894,19,0
73250,73250,"148th Ave NE & NE 37th Pl (SB)",,47.644082,-122.143067,19,0
73246,73246,"148th Ave NE & NE 43rd Pl (SB)",,47.648047,-122.143156,19,0
64600,64600,"West Lk Sammamish Pkwy SE & 182nd Ave SE (WB)",,47.565869,-122.097891,19,0
59554,59554,"161st Ave SE & SE 170th Pl (SB)",,47.450133,-122.124718,24,0
99271,99271,"SODO Busway & S Royal Brougham Way (SB)",,47.591814,-122.327382,72,0
99267,99267,"SODO Busway & S Royal Brougham Way (NB)",,47.592005,-122.327412,21,0
99264,99264,"SODO Busway & S Holgate St (NB)",,47.586856,-122.327539,21,0
99266,99266,"SODO Busway & S Holgate St (SB)",,47.585273,-122.327551,21,0
99254,99254,"SODO Busway & S Lander St (NB)",,47.580452,-122.327532,73,0
99263,99263,"SODO Busway & S Lander St (SB)",,47.578997,-122.32753,21,0
99253,99253,"SODO Busway & S Spokane St (SB)",,47.571796,-122.327489,21,0
99252,99252,"SODO Busway & S Spokane St (NB)",,47.572262,-122.327491,21,0
82789,82789,"Coal Creek Pkwy SE & SE 84th Way (SB)",,47.528785,-122.163252,19,0
73366,73366,"148th Ave NE & NE 46th St (NB)",,47.652576,-122.1432,19,0
73240,73240,"148th Ave NE & NE 51st St (SB)",,47.654648,-122.143374,19,0
72030,72030,"NE Old Redmond Rd & 143rd Ct NE (WB)",,47.666291,-122.148908,19,0
69550,69550,"Juanita Dr NE & Inglewood Rd NE (SB)",,47.751341,-122.250033,19,0
69928,69928,"84th Ave NE & NE 155th St (NB)",,47.739665,-122.228947,19,0
69630,69630,"84th Ave NE & NE 155th St (SB)",,47.740487,-122.228931,19,0
80476,80476,"S 312th St & 10th Ave S (WB)",,47.322412,-122.320847,24,0
60720,60720,"Pacific Hwy S & S 288th St (NB)",,47.343874,-122.312227,24,0
85894,85894,"S 288th St & 34th Ave S (EB)",,47.343334,-122.289665,24,0
85972,85972,"S 288th St & 34th Ave S (WB)",,47.343334,-122.289721,24,0
62190,62190,"SE 256th St & 113th Ave SE (WB)",,47.372504,-122.19231,24,0
62184,62184,"SE 256th St & 118th Pl SE (WB)",,47.372436,-122.182908,24,0
57375,57375,"108th Ave SE & SE 220th Pl (SB)",,47.404453,-122.197108,24,0
57185,57185,"108th Ave SE & SE 220th Pl (NB)",,47.405056,-122.197103,24,0
57150,57150,"104th Ave SE & SE 232nd St (NB)",,47.394837,-122.202258,24,0
57200,57200,"108th Ave SE & SE 212th St (NB)",,47.412096,-122.197089,24,0
57220,57220,"108th Ave SE & SE 204th St (NB)",,47.418952,-122.197069,24,0
59284,59284,"Lea Hill Rd SE & 106th Pl SE (EB)",,47.320475,-122.200932,24,0
81564,81564,"132nd Ave NE & NE 110th Pl (SB)",,47.699451,-122.16458,19,0
74270,74270,"124th Ave NE & NE 116th St (SB)",,47.705187,-122.175796,19,0
74268,74268,"124th Ave NE & NE 124th St (SB)",,47.706976,-122.175719,19,0
80514,80514,"132nd Ave NE & NE 114th St (NB)",,47.702901,-122.16448,19,0
81576,81576,"132nd Ave NE & NE 95th St (SB)",,47.68618,-122.164503,19,0
81580,81580,"132nd Ave NE & NE 88th St (SB)",,47.681431,-122.163928,19,0
81536,81536,"132nd Ave NE & NE 93rd St (NB)",,47.683958,-122.164152,19,0
81578,81578,"132nd Ave NE & NE 93rd St (SB)",,47.684361,-122.164219,19,0
2850,2850,"Madrona Park & Lake Washington Blvd (EB)",,47.612135,-122.281778,21,0
30635,30635,"4th Ave S & S Royal Brougham Way (NB)",,47.593337,-122.329061,21,0
73848,73848,"NE 85th St & 154th Ave NE (EB)",,47.678598,-122.133945,19,0
73420,73420,"NE Redmond Way & 148th Ave NE (EB)",,47.675137,-122.142606,19,0
73412,73412,"148th Ave NE & NE 87th St (NB)",,47.681144,-122.144786,19,0
72291,72291,"185th Ave NE & NE 68th St (NB)",,47.667259,-122.093703,19,0
81755,81755,"Bear Creek P&R (NB)",,47.673619,-122.101797,19,0
72314,72314,"Houghton P&R - Bay 2 (WB)",,47.668015,-122.1856,19,0
68496,68496,"154th Ave NE & NE 85th St (SB)",,47.677987,-122.134676,19,0
60457,60457,"132nd Ave SE & SE 268th St (SB)",,47.360828,-122.165478,24,0
60453,60453,"Lake Meridian P&R (NB)",,47.361053,-122.166308,24,0
71370,71370,"NE 24th St & 152nd Ave NE (EB)",,47.63155,-122.13714,19,0
71322,71322,"NE 24th St & NE Bel-Red Rd (WB)",,47.631578,-122.134456,19,0
68370,68370,"NE 24th St & 156th Ave NE (EB)",,47.63158,-122.131728,19,0
71320,71320,"NE 24th St & 156th Ave NE (WB)",,47.631569,-122.13126,19,0
68372,68372,"NE 24th St & 160th Ave NE (EB)",,47.631474,-122.127147,19,0
71310,71310,"NE 24th St & 160th Ave NE (WB)",,47.631485,-122.127822,19,0
66700,66700,"NE 24th St & 162nd Ave NE (EB)",,47.631389,-122.123594,19,0
71300,71300,"NE 24th St & 162nd Ave NE (WB)",,47.631432,-122.125297,19,0
71380,71380,"NE 24th St & 164th Ave NE (EB)",,47.631339,-122.120928,19,0
71290,71290,"NE 24th St & 164th Ave NE (WB)",,47.631339,-122.121094,19,0
71280,71280,"NE 24th St & 167th Ave NE (WB)",,47.631312,-122.118098,19,0
71390,71390,"NE 24th St & 167th Ave NE (EB)",,47.631306,-122.117643,19,0
71400,71400,"NE 24th St & 171st Ave NE (EB)",,47.63126,-122.112752,19,0
71270,71270,"NE 24th St & 169th Ave NE (WB)",,47.631271,-122.113825,19,0
71260,71260,"NE 24th St & 173rd Ave NE (WB)",,47.631227,-122.109873,19,0
71410,71410,"NE 24th St & 173rd Ave NE (EB)",,47.631227,-122.10965,19,0
71420,71420,"NE 24th St & 175th Ave NE (EB)",,47.631213,-122.106498,19,0
71250,71250,"NE 24th St & 175th Ave NE (WB)",,47.631213,-122.106938,19,0
71440,71440,"NE 24th St & 182nd Ave NE (EB)",,47.631156,-122.097139,19,0
71230,71230,"NE 24th St & 182nd Ave NE (WB)",,47.631153,-122.09707,19,0
64048,64048,"SE 24th St & 70th Ave SE (EB)",,47.58915,-122.245233,19,0
68612,68612,"SE 24th St & 148th Ave SE (WB)",,47.589027,-122.143562,19,0
71658,71658,"SE 24th St & 156th Ave SE (EB)",,47.589032,-122.132064,19,0
71680,71680,"SE 24th St & 156th Ave SE (WB)",,47.589032,-122.132328,19,0
71660,71660,"SE 24th St & 158th Ave SE (EB)",,47.589008,-122.128091,19,0
71678,71678,"SE 24th St & 158th Ave SE (WB)",,47.589008,-122.128001,19,0
23925,23925,"25th Ave NE & NE 47th St (SB)",,47.662907,-122.300923,21,0
25791,25791,"25th Ave NE & NE 47th St (NB)",,47.663606,-122.300909,21,0
23920,23920,"25th Ave NE & NE Blakeley St (SB)",,47.665716,-122.300637,21,0
25792,25792,"25th Ave NE & NE Blakeley St (NB)",,47.666757,-122.300623,21,0
23915,23915,"25th Ave NE & NE 55th St (SB)",,47.668286,-122.300631,21,0
25793,25793,"25th Ave NE & NE 55th St (NB)",,47.668733,-122.300633,21,0
23910,23910,"25th Ave NE & NE 60th St (SB)",,47.671871,-122.300652,21,0
25794,25794,"25th Ave NE & NE 60th St (NB)",,47.672378,-122.300653,21,0
25795,25795,"25th Ave NE & NE 65th St (NB)",,47.675995,-122.300662,21,0
23905,23905,"25th Ave NE & NE 65th St (SB)",,47.676206,-122.300655,21,0
23895,23895,"25th Ave NE & NE 75th St (SB)",,47.682818,-122.300766,21,0
25797,25797,"25th Ave NE & NE 75th St (NB)",,47.683139,-122.300774,21,0
25798,25798,"25th Ave NE & NE 80th St (NB)",,47.686479,-122.300859,21,0
23890,23890,"25th Ave NE & NE 80th St (SB)",,47.686164,-122.300847,21,0
39980,39980,"25th Ave SW & SW Henderson St (SB)",,47.523016,-122.36455,21,0
39990,39990,"25th Ave SW & SW Barton St - Bay 4 (SB)",,47.521224,-122.36456,21,0
12500,12500,"26th Ave S & S Norman St (NB)",,47.593159,-122.299076,21,0
85070,85070,"26th Ave SW & SW Roxbury St (SB)",,47.517012,-122.365921,5,0
85230,85230,"26th Ave SW & SW 100th St (NB)",,47.514047,-122.365892,24,0
85090,85090,"26th Ave SW & SW 100th St (SB)",,47.51345,-122.365883,24,0
85100,85100,"26th Ave SW & SW 104th St (SB)",,47.510326,-122.365852,24,0
85220,85220,"26th Ave SW & SW 104th St (NB)",,47.510441,-122.365855,24,0
85210,85210,"26th Ave SW & SW 106th St (NB)",,47.50852,-122.365825,24,0
85110,85110,"26th Ave SW & SW 106th St (SB)",,47.507917,-122.365824,24,0
85120,85120,"26th Ave SW & SW 110th St (SB)",,47.504725,-122.365794,24,0
85200,85200,"26th Ave SW & SW 110th St (NB)",,47.504895,-122.365792,24,0
85190,85190,"26th Ave SW & SW 112th St (NB)",,47.503067,-122.365777,24,0
85130,85130,"26th Ave SW & SW 112th St (SB)",,47.502547,-122.365775,24,0
85140,85140,"26th Ave SW & SW 114th St (SB)",,47.501113,-122.365797,24,0
85180,85180,"26th Ave SW & SW 114th St (NB)",,47.501157,-122.365796,24,0
85170,85170,"26th Ave SW & SW 116th St (NB)",,47.499494,-122.36582,24,0
56720,56720,"NE 27th St & Aberdeen Ave NE (WB)",,47.515925,-122.191529,24,0
54780,54780,"NE 27th St & Aberdeen Ave NE (EB)",,47.515911,-122.191388,24,0
56710,56710,"NE 27th St & Camas Ave NE (WB)",,47.515746,-122.188582,24,0
85160,85160,"28th Ave SW & SW 116th St (SB)",,47.49922,-122.369012,24,0
20710,20710,"28th Ave W & W Eaton St (SB)",,47.633109,-122.393105,21,0
20890,20890,"28th Ave W & W Blaine St (NB)",,47.634913,-122.393068,21,0
20700,20700,"28th Ave W & W Blaine St (SB)",,47.634871,-122.393072,21,0
24510,24510,"28th Ave W & W Crockett St (SB)",,47.637513,-122.393046,21,0
24540,24540,"28th Ave W & W Crockett St (NB)",,47.637864,-122.393037,21,0
24500,24500,"28th Ave W & W Lynn St (SB)",,47.638905,-122.393021,21,0
24560,24560,"28th Ave W & W Halladay St (NB)",,47.642265,-122.392982,21,0
24490,24490,"28th Ave W & W Smith St (SB)",,47.641207,-122.392995,21,0
24570,24570,"28th Ave W & W Raye St (NB)",,47.643588,-122.392963,21,0
24480,24480,"28th Ave W & W Raye St (SB)",,47.643317,-122.392966,21,0
24580,24580,"28th Ave W & W Fulton St (NB)",,47.64569,-122.392938,21,0
24470,24470,"28th Ave W & W Fulton St (SB)",,47.645737,-122.392934,21,0
24590,24590,"28th Ave W & W Barrett St (NB)",,47.647049,-122.392923,21,0
24460,24460,"28th Ave W & W Barrett St (SB)",,47.646871,-122.392921,21,0
24450,24450,"28th Ave W & W Dravus St (SB)",,47.648313,-122.392916,21,0
24600,24600,"28th Ave W & W Dravus St (NB)",,47.64877,-122.392911,21,0
24440,24440,"28th Ave W & W Bertona St (SB)",,47.650121,-122.392903,21,0
24610,24610,"28th Ave W & W Bertona St (NB)",,47.650598,-122.392902,21,0
24620,24620,"28th Ave W & W Ruffner St (NB)",,47.65222,-122.392899,21,0
24430,24430,"28th Ave W & W Ruffner St (SB)",,47.651998,-122.392898,21,0
57650,57650,"29th St SE & I St SE (EB)",,47.282818,-122.217586,24,0
38110,38110,"30th Ave NE & NE 127th St (SB)",,47.720897,-122.296349,21,0
38670,38670,"30th Ave NE & NE 127th St (NB)",,47.721535,-122.296356,21,0
38100,38100,"30th Ave NE & NE 130th St (SB)",,47.722607,-122.296366,21,0
38680,38680,"30th Ave NE & NE 130th St (NB)",,47.723081,-122.296372,21,0
38090,38090,"30th Ave NE & NE 133rd St (SB)",,47.72447,-122.296394,21,0
38700,38700,"30th Ave NE & NE 135th St (NB)",,47.726745,-122.296424,21,0
38080,38080,"30th Ave NE & NE 135th St (SB)",,47.726572,-122.296419,21,0
38720,38720,"30th Ave NE & NE 140th St (NB)",,47.730351,-122.296547,21,0
38060,38060,"30th Ave NE & NE 140th St (SB)",,47.730203,-122.296524,21,0
38050,38050,"30th Ave NE & NE 143rd St (SB)",,47.731715,-122.296561,21,0
38730,38730,"30th Ave NE & NE 143rd St (NB)",,47.732165,-122.296551,21,0
24640,24640,"30th Ave W & W Emerson St (NB)",,47.654311,-122.39567,21,0
24400,24400,"30th Ave W & W Emerson St (SB)",,47.654119,-122.395664,21,0
24390,24390,"30th Ave W & W Thurman St (SB)",,47.655774,-122.395677,21,0
24650,24650,"30th Ave W & W Thurman St (NB)",,47.656259,-122.395671,21,0
24380,24380,"30th Ave W & W Mansell St (SB)",,47.658369,-122.396583,21,0
54760,54760,"NE 30th St & I-405 (EB)",,47.518432,-122.197467,24,0
56741,56741,"NE 30th St & I-405 (WB)",,47.518432,-122.197269,24,0
12050,12050,"31st Ave S & S King St (SB)",,47.597738,-122.292655,21,0
11860,11860,"31st Ave S & S King St (NB)",,47.597922,-122.292636,21,0
11840,11840,"31st Ave S & S Dearborn St (NB)",,47.595924,-122.292712,21,0
12070,12070,"31st Ave S & S Dearborn St (SB)",,47.595507,-122.292721,21,0
11820,11820,"31st Ave S & S Norman St (NB)",,47.593502,-122.292777,21,0
12080,12080,"31st Ave S & S Norman St (SB)",,47.593066,-122.292791,21,0
12090,12090,"31st Ave S & S Irving St (SB)",,47.590967,-122.292405,21,0
11800,11800,"31st Ave S & S Day St (NB)",,47.590531,-122.292415,21,0
11790,11790,"31st Ave S & S Massachusetts St (NB)",,47.588158,-122.292557,21,0
12110,12110,"31st Ave S & S Massachusetts St (SB)",,47.58787,-122.292556,21,0
12130,12130,"31st Ave S & S Plum St (SB)",,47.584957,-122.29301,21,0
11770,11770,"31st Ave S & S Plum St (NB)",,47.585094,-122.293012,21,0
12140,12140,"31st Ave S & S Walker St (SB)",,47.58342,-122.293011,21,0
11750,11750,"31st Ave S & S College St (NB)",,47.582702,-122.293012,21,0
11730,11730,"31st Ave S & S Lander St (NB)",,47.579852,-122.293014,21,0
12160,12160,"31st Ave S & S Lander St (SB)",,47.579422,-122.293012,21,0
24660,24660,"31st Ave W & W Mansell St (NB)",,47.658608,-122.396816,21,0
24670,24670,"31st Ave W & W Jameson St (NB)",,47.659961,-122.397573,21,0
18820,18820,"32nd Ave NW & NW 60th St (NB)",,47.672402,-122.398366,21,0
18050,18050,"32nd Ave NW & NW 61st St (SB)",,47.672775,-122.398378,21,0
18790,18790,"32nd Ave NW & NW Market St (NB)",,47.668549,-122.398333,21,0
18085,18085,"32nd Ave NW & NW Market St (SB)",,47.667933,-122.398328,21,0
18800,18800,"32nd Ave NW & NW 56th St (NB)",,47.669777,-122.398335,21,0
18070,18070,"32nd Ave NW & NW 56th St (SB)",,47.669599,-122.398337,21,0
18810,18810,"32nd Ave NW & NW 58th St (NB)",,47.671166,-122.398347,21,0
18060,18060,"32nd Ave NW & NW 59th St (SB)",,47.671355,-122.398345,21,0
18830,18830,"32nd Ave NW & NW 62nd St (NB)",,47.673879,-122.398385,21,0
18041,18041,"32nd Ave NW & NW 64th St (SB)",,47.674474,-122.398395,21,0
18840,18840,"32nd Ave NW & NW 64th St (NB)",,47.675381,-122.398392,21,0
18850,18850,"32nd Ave NW & NW 66th St (NB)",,47.676765,-122.398385,21,0
18040,18040,"32nd Ave NW & NW 67th St (SB)",,47.677044,-122.398385,21,0
18860,18860,"32nd Ave NW & NW 69th St (NB)",,47.678658,-122.398391,21,0
18030,18030,"32nd Ave NW & NW 70th St (SB)",,47.679242,-122.398397,21,0
18870,18870,"32nd Ave NW & NW 71st St (NB)",,47.680434,-122.398403,21,0
18020,18020,"32nd Ave NW & NW 72nd St (SB)",,47.680708,-122.3984,21,0
18880,18880,"32nd Ave NW & NW 73rd St (NB)",,47.681853,-122.398407,21,0
18010,18010,"32nd Ave NW & NW 73rd St (SB)",,47.681675,-122.398405,21,0
18890,18890,"32nd Ave NW & NW 75th St (NB)",,47.683232,-122.398314,21,0
18000,18000,"32nd Ave NW & NW 75th St (SB)",,47.683136,-122.398311,21,0
18900,18900,"32nd Ave NW & NW 77th St (NB)",,47.685087,-122.398325,21,0
17990,17990,"32nd Ave NW & NW 77th St (SB)",,47.684975,-122.398323,21,0
17980,17980,"32nd Ave NW & NW 80th St (SB)",,47.686347,-122.398307,21,0
18910,18910,"32nd Ave NW & NW 80th St (NB)",,47.686986,-122.398316,21,0
18920,18920,"32nd Ave NW & Loyal Way NW (NB)",,47.688348,-122.398324,21,0
18930,18930,"32nd Ave NW & NW 85th St (NB)",,47.690019,-122.398329,21,0
17970,17970,"32nd Ave NW & NW 80th St (SB)",,47.688005,-122.39832,21,0
17960,17960,"32nd Ave NW & NW 85th St (SB)",,47.690129,-122.398328,21,0
12712,12712,"34th Ave & E Cherry St (SB)",,47.608044,-122.289438,21,0
13080,13080,"34th Ave & E Columbia St (NB)",,47.609469,-122.289407,21,0
